[
  {
    "id": "S05700",
    "name": "Abano Terme",
    "regionId": "12",
    "lat": 45.355199,
    "lon": 11.811533,
    "lefrecceId": null
  },
  {
    "id": "S01416",
    "name": "Abbadia Lariana",
    "regionId": "1",
    "lat": 45.895864,
    "lon": 9.335175,
    "lefrecceId": 830001416
  },
  {
    "id": "S12873",
    "name": "Abbasanta",
    "regionId": "20",
    "lat": 40.128801,
    "lon": 8.817733,
    "lefrecceId": 830012873
  },
  {
    "id": "S01728",
    "name": "Abbiate Guazzone",
    "regionId": null,
    "lat": null,
    "lon": null,
    "lefrecceId": 830025757
  },
  {
    "id": "S01062",
    "name": "Abbiategrasso",
    "regionId": "1",
    "lat": 45.400631,
    "lon": 8.921305,
    "lefrecceId": 830001062
  },
  {
    "id": "S12409",
    "name": "Acate",
    "regionId": "14",
    "lat": 36.996592,
    "lon": 14.42545,
    "lefrecceId": 830012409
  },
  {
    "id": "S07423",
    "name": "Acciano",
    "regionId": "19",
    "lat": 42.175994,
    "lon": 13.711345,
    "lefrecceId": 830007423
  },
  {
    "id": "S09215",
    "name": "Acerra",
    "regionId": "18",
    "lat": 40.939066,
    "lon": 14.372243,
    "lefrecceId": 830009215
  },
  {
    "id": "S12328",
    "name": "Acireale",
    "regionId": "14",
    "lat": 37.600514,
    "lon": 15.163697,
    "lefrecceId": 830012328
  },
  {
    "id": "S08715",
    "name": "Acqua Acetosa",
    "regionId": "5",
    "lat": 41.794294,
    "lon": 12.616449,
    "lefrecceId": 830008715
  },
  {
    "id": "S11722",
    "name": "Acquafredda",
    "regionId": "15",
    "lat": 40.035527,
    "lon": 15.671846,
    "lefrecceId": 830011722
  },
  {
    "id": "S09798",
    "name": "Acquamela",
    "regionId": "18",
    "lat": 40.732150656743,
    "lon": 14.77004323172,
    "lefrecceId": 830009533
  },
  {
    "id": "S01913",
    "name": "Acquanegra Cremonese",
    "regionId": "1",
    "lat": 45.172102,
    "lon": 9.888456,
    "lefrecceId": 830001913
  },
  {
    "id": "S11736",
    "name": "Acquappesa",
    "regionId": "17",
    "lat": 39.48648,
    "lon": 15.955992,
    "lefrecceId": 830011736
  },
  {
    "id": "S07978",
    "name": "Acquasparta",
    "regionId": null,
    "lat": null,
    "lon": null,
    "lefrecceId": null
  },
  {
    "id": "S12209",
    "name": "Acquaviva",
    "regionId": "14",
    "lat": 37.570258,
    "lon": 13.674927,
    "lefrecceId": 830011504
  },
  {
    "id": "S11504",
    "name": "Acquaviva delle Fonti",
    "regionId": "16",
    "lat": 40.892806,
    "lon": 16.839826,
    "lefrecceId": 830011504
  },
  {
    "id": "S12026",
    "name": "Acquedolci-S. Fratello",
    "regionId": "14",
    "lat": 38.058459,
    "lon": 14.587597,
    "lefrecceId": null
  },
  {
    "id": "S00867",
    "name": "Acqui Terme",
    "regionId": "3",
    "lat": 44.67407,
    "lon": 8.474482,
    "lefrecceId": 830000867
  },
  {
    "id": "S11907",
    "name": "Acri Bisignano Luzzi",
    "regionId": "17",
    "lat": 39.441389,
    "lon": 16.245177,
    "lefrecceId": null
  },
  {
    "id": "S13098",
    "name": "Adelfia",
    "regionId": "16",
    "lat": 0,
    "lon": 4.5112561156128,
    "lefrecceId": null
  },
  {
    "id": "S05420",
    "name": "Adria",
    "regionId": "12",
    "lat": 45.06058,
    "lon": 12.054228,
    "lefrecceId": 830005420
  },
  {
    "id": "S11872",
    "name": "Africo Nuovo",
    "regionId": "17",
    "lat": 38.053759,
    "lon": 16.144283,
    "lefrecceId": 830011872
  },
  {
    "id": "S00804",
    "name": "Agliano Castelnuovo Calcea",
    "regionId": "3",
    "lat": 44.786108,
    "lon": 8.267723,
    "lefrecceId": null
  },
  {
    "id": "S00075",
    "name": "Agognate",
    "regionId": "3",
    "lat": 45.465138728725,
    "lon": 8.6034537384703,
    "lefrecceId": null
  },
  {
    "id": "S12213",
    "name": "Agrigento Bassa",
    "regionId": "14",
    "lat": 37.319148,
    "lon": 13.588094,
    "lefrecceId": 830012213
  },
  {
    "id": "S12216",
    "name": "Agrigento Centrale",
    "regionId": "14",
    "lat": 37.309051,
    "lon": 13.584412,
    "lefrecceId": 830012216
  },
  {
    "id": "S11705",
    "name": "Agropoli Castellabate",
    "regionId": "18",
    "lat": 40.351521,
    "lon": 15.002053,
    "lefrecceId": null
  },
  {
    "id": "S08550",
    "name": "Aielli",
    "regionId": "19",
    "lat": 42.061963889742,
    "lon": 13.581576979393,
    "lefrecceId": 830008529
  },
  {
    "id": "S00514",
    "name": "Airasca",
    "regionId": "3",
    "lat": 44.928093,
    "lon": 7.483536,
    "lefrecceId": 830000514
  },
  {
    "id": "S04481",
    "name": "Airole",
    "regionId": "2",
    "lat": 43.870494,
    "lon": 7.552757,
    "lefrecceId": 830004481
  },
  {
    "id": "S01515",
    "name": "Airuno",
    "regionId": "1",
    "lat": 45.754086,
    "lon": 9.422066,
    "lefrecceId": 830001515
  },
  {
    "id": "S02049",
    "name": "Ala",
    "regionId": "9",
    "lat": 45.760087,
    "lon": 10.996775,
    "lefrecceId": 830002049
  },
  {
    "id": "S07708",
    "name": "Alanno",
    "regionId": "19",
    "lat": 42.287185,
    "lon": 14.019595,
    "lefrecceId": 830007708
  },
  {
    "id": "S02566",
    "name": "Alano Fener Valdobbiadene",
    "regionId": "12",
    "lat": 45.90229,
    "lon": 11.944546,
    "lefrecceId": null
  },
  {
    "id": "S04515",
    "name": "Alassio",
    "regionId": "2",
    "lat": 44.007889,
    "lon": 8.17112,
    "lefrecceId": 830004515
  },
  {
    "id": "S00825",
    "name": "Alba",
    "regionId": "3",
    "lat": 44.697713,
    "lon": 8.030629,
    "lefrecceId": 830000825
  },
  {
    "id": "S07800",
    "name": "Alba Adriatica Nereto Contr.",
    "regionId": "19",
    "lat": 42.83438,
    "lon": 13.91733,
    "lefrecceId": null
  },
  {
    "id": "S07207",
    "name": "Albacina",
    "regionId": "11",
    "lat": 43.345686,
    "lon": 12.986501,
    "lefrecceId": 830007207
  },
  {
    "id": "S01059",
    "name": "Albairate Vermezzo",
    "regionId": null,
    "lat": null,
    "lon": null,
    "lefrecceId": null
  },
  {
    "id": "S11453",
    "name": "Albano di Lucania",
    "regionId": "15",
    "lat": 40.574707,
    "lon": 16.021247,
    "lefrecceId": 830011453
  },
  {
    "id": "S08704",
    "name": "Albano Laziale",
    "regionId": "5",
    "lat": 41.72632,
    "lon": 12.658056,
    "lefrecceId": 830008704
  },
  {
    "id": "S01534",
    "name": "Albano S. Alessandro",
    "regionId": "1",
    "lat": 45.682744,
    "lon": 9.768027,
    "lefrecceId": 830001534
  },
  {
    "id": "S09004",
    "name": "Albanova",
    "regionId": "18",
    "lat": 40.996117,
    "lon": 14.128596,
    "lefrecceId": 830009004
  },
  {
    "id": "S02538",
    "name": "Albaredo",
    "regionId": "12",
    "lat": 45.670265,
    "lon": 12.015104,
    "lefrecceId": 830002538
  },
  {
    "id": "S01310",
    "name": "Albate Camerlata",
    "regionId": "1",
    "lat": 45.777371,
    "lon": 9.073461,
    "lefrecceId": null
  },
  {
    "id": "S01450",
    "name": "Albate-Trecallo",
    "regionId": "1",
    "lat": 45.777391,
    "lon": 9.095752,
    "lefrecceId": null
  },
  {
    "id": "S04516",
    "name": "Albenga",
    "regionId": "2",
    "lat": 44.04722,
    "lon": 8.221663,
    "lefrecceId": 830004516
  },
  {
    "id": "S08001",
    "name": "Alberese",
    "regionId": "13",
    "lat": 42.634158,
    "lon": 11.1352,
    "lefrecceId": 830008001
  },
  {
    "id": "S06067",
    "name": "Albergo",
    "regionId": null,
    "lat": null,
    "lon": null,
    "lefrecceId": 830006067
  },
  {
    "id": "S13126",
    "name": "Alberobello",
    "regionId": "16",
    "lat": 0,
    "lon": 4.5112561156128,
    "lefrecceId": null
  },
  {
    "id": "S08003",
    "name": "Albinia",
    "regionId": "13",
    "lat": 42.502165,
    "lon": 11.21134,
    "lefrecceId": 830008003
  },
  {
    "id": "S04529",
    "name": "Albisola",
    "regionId": "2",
    "lat": 44.33469,
    "lon": 8.512092,
    "lefrecceId": 830004529
  },
  {
    "id": "S01209",
    "name": "Albizzate Solbiate Arno",
    "regionId": "1",
    "lat": 45.724117,
    "lon": 8.80621,
    "lefrecceId": null
  },
  {
    "id": "S00033",
    "name": "Albonese",
    "regionId": "1",
    "lat": 45.297785,
    "lon": 8.714601,
    "lefrecceId": 830000033
  },
  {
    "id": "S01863",
    "name": "Albuzzano",
    "regionId": "1",
    "lat": 45.172504,
    "lon": 9.261624,
    "lefrecceId": 830001863
  },
  {
    "id": "S12150",
    "name": "Alcamo Diramazione",
    "regionId": "14",
    "lat": 37.978894,
    "lon": 12.915916,
    "lefrecceId": 830012150
  },
  {
    "id": "S12320",
    "name": "Alcantara",
    "regionId": "14",
    "lat": 37.82145,
    "lon": 15.251158,
    "lefrecceId": 830012320
  },
  {
    "id": "S00470",
    "name": "Alessandria",
    "regionId": "3",
    "lat": 44.909091,
    "lon": 8.606498,
    "lefrecceId": 830000470
  },
  {
    "id": "S13192",
    "name": "Alessano Corsano",
    "regionId": "16",
    "lat": 0,
    "lon": 4.5112561156128,
    "lefrecceId": null
  },
  {
    "id": "S13171",
    "name": "Alezio",
    "regionId": "16",
    "lat": 0,
    "lon": 4.5112561156128,
    "lefrecceId": null
  },
  {
    "id": "S08908",
    "name": "Alfedena-Scontrone",
    "regionId": "19",
    "lat": 41.738222,
    "lon": 14.044662,
    "lefrecceId": 830008908
  },
  {
    "id": "S05808",
    "name": "Alfonsine",
    "regionId": "8",
    "lat": 44.512364,
    "lon": 12.039155,
    "lefrecceId": 830005808
  },
  {
    "id": "S12310",
    "name": "Ali' Terme",
    "regionId": "14",
    "lat": 38.013952,
    "lon": 15.435184,
    "lefrecceId": null
  },
  {
    "id": "S00809",
    "name": "Alice Belcolle",
    "regionId": "3",
    "lat": 44.722636,
    "lon": 8.440076,
    "lefrecceId": 830000809
  },
  {
    "id": "S09020",
    "name": "Alife",
    "regionId": null,
    "lat": null,
    "lon": null,
    "lefrecceId": 830052007
  },
  {
    "id": "S08202",
    "name": "Allerona-Castel Viscardo",
    "regionId": "6",
    "lat": 42.78502,
    "lon": 12.035236,
    "lefrecceId": 830008202
  },
  {
    "id": "S00216",
    "name": "Alpignano",
    "regionId": "3",
    "lat": 45.091077,
    "lon": 7.523745,
    "lefrecceId": 830000216
  },
  {
    "id": "S11307",
    "name": "Altamura",
    "regionId": "16",
    "lat": 40.837666,
    "lon": 16.551739,
    "lefrecceId": 830011307
  },
  {
    "id": "S04810",
    "name": "Altare",
    "regionId": "2",
    "lat": 44.336169,
    "lon": 8.332753,
    "lefrecceId": 830004810
  },
  {
    "id": "S09511",
    "name": "Altavilla Irpina",
    "regionId": "18",
    "lat": 41.015265,
    "lon": 14.782833,
    "lefrecceId": 830009511
  },
  {
    "id": "S12011",
    "name": "Altavilla M.",
    "regionId": "14",
    "lat": 38.048392,
    "lon": 13.554421,
    "lefrecceId": null
  },
  {
    "id": "S02444",
    "name": "Altavilla Tavernelle",
    "regionId": "12",
    "lat": 45.511805,
    "lon": 11.454702,
    "lefrecceId": null
  },
  {
    "id": "S06407",
    "name": "Altopascio",
    "regionId": "13",
    "lat": 43.817418,
    "lon": 10.672754,
    "lefrecceId": 830006407
  },
  {
    "id": "S08206",
    "name": "Alviano",
    "regionId": "6",
    "lat": 42.591917,
    "lon": 12.259583,
    "lefrecceId": 830008206
  },
  {
    "id": "S09023",
    "name": "Alvignno",
    "regionId": null,
    "lat": null,
    "lon": null,
    "lefrecceId": null
  },
  {
    "id": "S11744",
    "name": "Amantea",
    "regionId": "17",
    "lat": 39.134353,
    "lon": 16.068448,
    "lefrecceId": 830011744
  },
  {
    "id": "S01527",
    "name": "Ambivere Mapello",
    "regionId": "1",
    "lat": 45.722163,
    "lon": 9.550444,
    "lefrecceId": null
  },
  {
    "id": "S11051",
    "name": "Amendola",
    "regionId": "16",
    "lat": 41.518025,
    "lon": 15.732569,
    "lefrecceId": 830013891
  },
  {
    "id": "S11807",
    "name": "Amendolara Oriolo",
    "regionId": "17",
    "lat": 39.933731,
    "lon": 16.60308,
    "lefrecceId": null
  },
  {
    "id": "S09306",
    "name": "Amorosi Melizzano",
    "regionId": "18",
    "lat": 41.173509,
    "lon": 14.470759,
    "lefrecceId": null
  },
  {
    "id": "S08658",
    "name": "Anagni-Fiuggi",
    "regionId": "5",
    "lat": 41.71037,
    "lon": 13.09597,
    "lefrecceId": 830008658
  },
  {
    "id": "S07113",
    "name": "Ancona",
    "regionId": "11",
    "lat": 43.607734,
    "lon": 13.497665,
    "lefrecceId": 830007120
  },
  {
    "id": "S07116",
    "name": "Ancona Marittima",
    "regionId": "11",
    "lat": 43.619445,
    "lon": 13.50911,
    "lefrecceId": null
  },
  {
    "id": "S07114",
    "name": "Ancona Stadio",
    "regionId": "11",
    "lat": 43.55148011344,
    "lon": 13.521705146491,
    "lefrecceId": 830007114
  },
  {
    "id": "S07015",
    "name": "Ancona Torrette",
    "regionId": "11",
    "lat": 43.609936,
    "lon": 13.455777,
    "lefrecceId": 830007015
  },
  {
    "id": "S02141",
    "name": "Anconetta",
    "regionId": "12",
    "lat": 45.565249,
    "lon": 11.567865,
    "lefrecceId": 830002141
  },
  {
    "id": "S04525",
    "name": "Andora",
    "regionId": "2",
    "lat": 43.952003,
    "lon": 8.139319,
    "lefrecceId": 830004513
  },
  {
    "id": "S13188",
    "name": "Andrano-castiglione",
    "regionId": "16",
    "lat": 0,
    "lon": 4.5112561156128,
    "lefrecceId": null
  },
  {
    "id": "S09031",
    "name": "Anfiteatro",
    "regionId": null,
    "lat": null,
    "lon": null,
    "lefrecceId": 830052006
  },
  {
    "id": "S09812",
    "name": "Angri",
    "regionId": "18",
    "lat": 40.746404,
    "lon": 14.575366,
    "lefrecceId": 830009812
  },
  {
    "id": "S08318",
    "name": "Anguillara",
    "regionId": "5",
    "lat": 42.068133,
    "lon": 12.304978,
    "lefrecceId": 830008318
  },
  {
    "id": "S11870",
    "name": "Anna'",
    "regionId": "17",
    "lat": 37.925470152391,
    "lon": 15.748532823506,
    "lefrecceId": 830011870
  },
  {
    "id": "S02769",
    "name": "Annone Veneto",
    "regionId": "12",
    "lat": 45.774904,
    "lon": 12.680334,
    "lefrecceId": 830002769
  },
  {
    "id": "S06727",
    "name": "Antignano",
    "regionId": "13",
    "lat": 43.492482,
    "lon": 10.328827,
    "lefrecceId": 830006727
  },
  {
    "id": "S07408",
    "name": "Antrodoco Borgo Velino",
    "regionId": "5",
    "lat": 42.415393,
    "lon": 13.076193,
    "lefrecceId": null
  },
  {
    "id": "S07435",
    "name": "Antrodoco Centro",
    "regionId": "5",
    "lat": 42.409844,
    "lon": 13.07096,
    "lefrecceId": 830007435
  },
  {
    "id": "S08537",
    "name": "Anversa-Villalago-Scanno",
    "regionId": "19",
    "lat": 42.017261,
    "lon": 13.835618,
    "lefrecceId": null
  },
  {
    "id": "S01453",
    "name": "Anzano del Parco",
    "regionId": "1",
    "lat": 45.764965,
    "lon": 9.202676,
    "lefrecceId": 830001453
  },
  {
    "id": "S08709",
    "name": "Anzio",
    "regionId": "5",
    "lat": 41.4532,
    "lon": 12.633205,
    "lefrecceId": 830008709
  },
  {
    "id": "S08713",
    "name": "Anzio Colonia",
    "regionId": "5",
    "lat": 41.459893,
    "lon": 12.617442,
    "lefrecceId": 830008708
  },
  {
    "id": "S05386",
    "name": "Anzola",
    "regionId": "8",
    "lat": 44.542245701088,
    "lon": 11.195379444623,
    "lefrecceId": 830005040
  },
  {
    "id": "S00137",
    "name": "Aosta",
    "regionId": "4",
    "lat": 45.73407,
    "lon": 7.322424,
    "lefrecceId": 830000137
  },
  {
    "id": "S00143",
    "name": "Aosta Istituto",
    "regionId": "4",
    "lat": 45.732938,
    "lon": 7.303076,
    "lefrecceId": null
  },
  {
    "id": "S00146",
    "name": "Aosta Viale Europa",
    "regionId": "4",
    "lat": 45.733294,
    "lon": 7.297371,
    "lefrecceId": null
  },
  {
    "id": "S09314",
    "name": "Apice S. Arcangelo Bonito",
    "regionId": "18",
    "lat": 41.140927,
    "lon": 14.918733,
    "lefrecceId": null
  },
  {
    "id": "S08328",
    "name": "Appiano",
    "regionId": "5",
    "lat": 41.909342,
    "lon": 12.43838,
    "lefrecceId": 830008334
  },
  {
    "id": "S11024",
    "name": "Apricena",
    "regionId": "16",
    "lat": 41.77664,
    "lon": 15.387809,
    "lefrecceId": 830011024
  },
  {
    "id": "S11675",
    "name": "Apricena Citta'",
    "regionId": null,
    "lat": null,
    "lon": null,
    "lefrecceId": null
  },
  {
    "id": "S08705",
    "name": "Aprilia",
    "regionId": "5",
    "lat": 41.592386,
    "lon": 12.639126,
    "lefrecceId": 830008705
  },
  {
    "id": "S09623",
    "name": "Aquilonia",
    "regionId": "18",
    "lat": 40.940252,
    "lon": 15.541249,
    "lefrecceId": null
  },
  {
    "id": "S12370",
    "name": "Aragona Caldare",
    "regionId": "14",
    "lat": 37.381097,
    "lon": 13.636837,
    "lefrecceId": null
  },
  {
    "id": "S06811",
    "name": "Arbia",
    "regionId": "13",
    "lat": 43.294393,
    "lon": 11.406225,
    "lefrecceId": 830006811
  },
  {
    "id": "S09838",
    "name": "Arbostella",
    "regionId": "18",
    "lat": 40.677263,
    "lon": 15.623814,
    "lefrecceId": null
  },
  {
    "id": "S08861",
    "name": "Arce",
    "regionId": "5",
    "lat": 41.583695,
    "lon": 13.571848,
    "lefrecceId": 830008861
  },
  {
    "id": "S07992",
    "name": "Archi",
    "regionId": null,
    "lat": null,
    "lon": null,
    "lefrecceId": 830051008
  },
  {
    "id": "S01203",
    "name": "Arcisate",
    "regionId": "1",
    "lat": 45.858579,
    "lon": 8.86241,
    "lefrecceId": 830001203
  },
  {
    "id": "S06006",
    "name": "Arcola",
    "regionId": "2",
    "lat": 44.118651,
    "lon": 9.914649,
    "lefrecceId": 830006006
  },
  {
    "id": "S01510",
    "name": "Arcore",
    "regionId": "1",
    "lat": 45.623493,
    "lon": 9.322798,
    "lefrecceId": 830001510
  },
  {
    "id": "S12817",
    "name": "Ardara",
    "regionId": "20",
    "lat": 40.632139,
    "lon": 8.818996,
    "lefrecceId": null
  },
  {
    "id": "S01427",
    "name": "Ardenno Masino",
    "regionId": "1",
    "lat": 46.16198,
    "lon": 9.651374,
    "lefrecceId": null
  },
  {
    "id": "S11853",
    "name": "Ardore",
    "regionId": "17",
    "lat": 38.175698,
    "lon": 16.207311,
    "lefrecceId": 830011853
  },
  {
    "id": "S09839",
    "name": "Arechi",
    "regionId": "18",
    "lat": 40.648220981195,
    "lon": 14.824824066857,
    "lefrecceId": null
  },
  {
    "id": "S01947",
    "name": "Arena Po",
    "regionId": "1",
    "lat": 45.082065,
    "lon": 9.360394,
    "lefrecceId": 830001947
  },
  {
    "id": "S04533",
    "name": "Arenzano",
    "regionId": "2",
    "lat": 44.403089,
    "lon": 8.678322,
    "lefrecceId": 830004533
  },
  {
    "id": "S06915",
    "name": "Arezzo",
    "regionId": "13",
    "lat": 43.461725,
    "lon": 11.874189,
    "lefrecceId": 830006915
  },
  {
    "id": "S06086",
    "name": "Arezzo C. C.",
    "regionId": null,
    "lat": null,
    "lon": null,
    "lefrecceId": null
  },
  {
    "id": "S06063",
    "name": "Arezzo Pescaiola",
    "regionId": null,
    "lat": null,
    "lon": null,
    "lefrecceId": 830034002
  },
  {
    "id": "S05804",
    "name": "Argenta",
    "regionId": "8",
    "lat": 44.616867,
    "lon": 11.841267,
    "lefrecceId": 830005804
  },
  {
    "id": "S09316",
    "name": "Ariano Irpino",
    "regionId": "18",
    "lat": 41.181883,
    "lon": 15.117508,
    "lefrecceId": 830009316
  },
  {
    "id": "S01020",
    "name": "Arona",
    "regionId": "3",
    "lat": 45.755392,
    "lon": 8.559075,
    "lefrecceId": 830001020
  },
  {
    "id": "S01092",
    "name": "Arosio",
    "regionId": null,
    "lat": null,
    "lon": null,
    "lefrecceId": 830025034
  },
  {
    "id": "S09017",
    "name": "Arpaia-Airola-S. Agata dei Goti",
    "regionId": null,
    "lat": null,
    "lon": null,
    "lefrecceId": null
  },
  {
    "id": "S08859",
    "name": "Arpino",
    "regionId": "5",
    "lat": 41.648296,
    "lon": 13.59959,
    "lefrecceId": 830008859
  },
  {
    "id": "S05707",
    "name": "Arqua'",
    "regionId": "12",
    "lat": 45.006465,
    "lon": 11.748518,
    "lefrecceId": 830005707
  },
  {
    "id": "S04207",
    "name": "Arquata Scrivia",
    "regionId": "3",
    "lat": 44.692533,
    "lon": 8.885342,
    "lefrecceId": 830004207
  },
  {
    "id": "S08516",
    "name": "Arsoli",
    "regionId": "5",
    "lat": 42.045852,
    "lon": 13.013064,
    "lefrecceId": 830008516
  },
  {
    "id": "S03021",
    "name": "Artegna",
    "regionId": "10",
    "lat": 46.23115,
    "lon": 13.162328,
    "lefrecceId": 830003021
  },
  {
    "id": "S01779",
    "name": "Artogne - Gianico",
    "regionId": null,
    "lat": null,
    "lon": null,
    "lefrecceId": 830026001
  },
  {
    "id": "S00134",
    "name": "Arvier",
    "regionId": "4",
    "lat": 45.704259,
    "lon": 7.166681,
    "lefrecceId": 830000134
  },
  {
    "id": "S02841",
    "name": "Arzergrande",
    "regionId": null,
    "lat": null,
    "lon": null,
    "lefrecceId": null
  },
  {
    "id": "S11711",
    "name": "Ascea",
    "regionId": "18",
    "lat": 40.140955,
    "lon": 15.172626,
    "lefrecceId": 830011711
  },
  {
    "id": "S06813",
    "name": "Asciano",
    "regionId": "13",
    "lat": 43.235245,
    "lon": 11.579237,
    "lefrecceId": 830006813
  },
  {
    "id": "S06825",
    "name": "Asciano Monte Oliveto Maggiore",
    "regionId": "13",
    "lat": 43.231706,
    "lon": 11.563621,
    "lefrecceId": null
  },
  {
    "id": "S07550",
    "name": "Ascoli Piceno",
    "regionId": "11",
    "lat": 42.855474,
    "lon": 13.587939,
    "lefrecceId": 830007550
  },
  {
    "id": "S11203",
    "name": "Ascoli Satriano",
    "regionId": "16",
    "lat": 41.219859,
    "lon": 15.547828,
    "lefrecceId": 830011203
  },
  {
    "id": "S01847",
    "name": "Asola",
    "regionId": "1",
    "lat": 45.220454,
    "lon": 10.402313,
    "lefrecceId": 830001847
  },
  {
    "id": "S12889",
    "name": "Assemini",
    "regionId": "20",
    "lat": 39.287603,
    "lon": 8.997936,
    "lefrecceId": 830012889
  },
  {
    "id": "S12809",
    "name": "Assemini Carmine",
    "regionId": "20",
    "lat": 39.28179027013,
    "lon": 9.0137256571563,
    "lefrecceId": null
  },
  {
    "id": "S12808",
    "name": "Assemini S.lucia",
    "regionId": "20",
    "lat": 39.291035783083,
    "lon": 8.9892863641743,
    "lefrecceId": null
  },
  {
    "id": "S07008",
    "name": "Assisi",
    "regionId": "6",
    "lat": 43.058921,
    "lon": 12.585304,
    "lefrecceId": 830007008
  },
  {
    "id": "S01101",
    "name": "Asso",
    "regionId": "1",
    "lat": 45.855228,
    "lon": 9.268513,
    "lefrecceId": 830025046
  },
  {
    "id": "S00462",
    "name": "Asti",
    "regionId": "3",
    "lat": 44.89479,
    "lon": 8.208112,
    "lefrecceId": 830000462
  },
  {
    "id": "S07998",
    "name": "Ateleta",
    "regionId": null,
    "lat": null,
    "lon": null,
    "lefrecceId": 830051002
  },
  {
    "id": "S09904",
    "name": "Atena",
    "regionId": "18",
    "lat": 40.456676,
    "lon": 15.536094,
    "lefrecceId": 830009904
  },
  {
    "id": "S08207",
    "name": "Attigliano",
    "regionId": "6",
    "lat": 42.518054,
    "lon": 12.294761,
    "lefrecceId": 830008207
  },
  {
    "id": "S12345",
    "name": "Augusta",
    "regionId": "14",
    "lat": 37.24334,
    "lon": 15.218628,
    "lefrecceId": 830012345
  },
  {
    "id": "S09902",
    "name": "Auletta",
    "regionId": "18",
    "lat": 40.534934,
    "lon": 15.426706,
    "lefrecceId": 830014535
  },
  {
    "id": "S06168",
    "name": "Aulla",
    "regionId": "13",
    "lat": 44.209662,
    "lon": 9.970632,
    "lefrecceId": 830006013
  },
  {
    "id": "S06013",
    "name": "Aulla Lunigiana",
    "regionId": "13",
    "lat": 44.210555,
    "lon": 9.970015,
    "lefrecceId": 830006013
  },
  {
    "id": "S03550",
    "name": "Aurisina",
    "regionId": "10",
    "lat": 45.753943,
    "lon": 13.687706,
    "lefrecceId": 830003550
  },
  {
    "id": "S09514",
    "name": "Avellino",
    "regionId": "18",
    "lat": 40.921612,
    "lon": 14.820586,
    "lefrecceId": 830009514
  },
  {
    "id": "S09006",
    "name": "Aversa",
    "regionId": "18",
    "lat": 40.973323,
    "lon": 14.218578,
    "lefrecceId": 830009006
  },
  {
    "id": "S08526",
    "name": "Avezzano",
    "regionId": "19",
    "lat": 42.039495,
    "lon": 13.426446,
    "lefrecceId": 830008526
  },
  {
    "id": "S03087",
    "name": "Aviano",
    "regionId": "10",
    "lat": 46.064362,
    "lon": 12.590686,
    "lefrecceId": 830003087
  },
  {
    "id": "S00214",
    "name": "Avigliana",
    "regionId": "3",
    "lat": 45.085276,
    "lon": 7.401096,
    "lefrecceId": 830000214
  },
  {
    "id": "S11214",
    "name": "Avigliano Lucania",
    "regionId": "15",
    "lat": 40.714667,
    "lon": 15.785619,
    "lefrecceId": 830011214
  },
  {
    "id": "S02050",
    "name": "Avio",
    "regionId": "9",
    "lat": 45.733892,
    "lon": 10.955842,
    "lefrecceId": 830002050
  },
  {
    "id": "S00133",
    "name": "Avise",
    "regionId": "4",
    "lat": 45.706296,
    "lon": 7.131285,
    "lefrecceId": 830000133
  },
  {
    "id": "S12426",
    "name": "Avola",
    "regionId": "14",
    "lat": 36.907434,
    "lon": 15.125733,
    "lefrecceId": 830012426
  },
  {
    "id": "S11499",
    "name": "Ba Policlinico",
    "regionId": null,
    "lat": null,
    "lon": null,
    "lefrecceId": null
  },
  {
    "id": "S06081",
    "name": "Baciano",
    "regionId": null,
    "lat": null,
    "lon": null,
    "lefrecceId": 830006081
  },
  {
    "id": "S03118",
    "name": "Baden",
    "regionId": null,
    "lat": null,
    "lon": null,
    "lefrecceId": 810003118
  },
  {
    "id": "S02370",
    "name": "Badia Polesine",
    "regionId": "12",
    "lat": 45.094439,
    "lon": 11.484722,
    "lefrecceId": 830002370
  },
  {
    "id": "S11841",
    "name": "Badolato",
    "regionId": "17",
    "lat": 38.572268,
    "lon": 16.567646,
    "lefrecceId": 830011841
  },
  {
    "id": "S05186",
    "name": "Baggiovara Ospedale",
    "regionId": null,
    "lat": null,
    "lon": null,
    "lefrecceId": null
  },
  {
    "id": "S12008",
    "name": "Bagheria",
    "regionId": "14",
    "lat": 38.089905,
    "lon": 13.507215,
    "lefrecceId": 830012008
  },
  {
    "id": "S05902",
    "name": "Bagnacavallo",
    "regionId": "8",
    "lat": 44.412138,
    "lon": 11.969398,
    "lefrecceId": 830005902
  },
  {
    "id": "S11770",
    "name": "Bagnara",
    "regionId": "17",
    "lat": 38.282695,
    "lon": 15.800327,
    "lefrecceId": 830011770
  },
  {
    "id": "S03123",
    "name": "Bagnaria Arsa",
    "regionId": "10",
    "lat": 45.885513,
    "lon": 13.282026,
    "lefrecceId": 830003123
  },
  {
    "id": "S00921",
    "name": "Bagnasco",
    "regionId": "3",
    "lat": 44.303264,
    "lon": 8.046132,
    "lefrecceId": 830000921
  },
  {
    "id": "S06308",
    "name": "Bagni di Lucca",
    "regionId": "13",
    "lat": 44.003447,
    "lon": 10.551631,
    "lefrecceId": 830006308
  },
  {
    "id": "S08504",
    "name": "Bagni di Tivoli",
    "regionId": "5",
    "lat": 41.949593,
    "lon": 12.722208,
    "lefrecceId": 830008504
  },
  {
    "id": "S09102",
    "name": "Bagnoli Agnano Terme",
    "regionId": "18",
    "lat": 40.819444,
    "lon": 14.166694,
    "lefrecceId": null
  },
  {
    "id": "S09613",
    "name": "Bagnoli Irpino",
    "regionId": "18",
    "lat": 40.83917,
    "lon": 15.06324,
    "lefrecceId": 830009613
  },
  {
    "id": "S13196",
    "name": "Bagnolo Del Salento",
    "regionId": "16",
    "lat": 0,
    "lon": 4.5112561156128,
    "lefrecceId": null
  },
  {
    "id": "S05946",
    "name": "Bagnolo In Piano",
    "regionId": null,
    "lat": null,
    "lon": null,
    "lefrecceId": null
  },
  {
    "id": "S01901",
    "name": "Bagnolo Mella",
    "regionId": "1",
    "lat": 45.428532,
    "lon": 10.183617,
    "lefrecceId": 830001901
  },
  {
    "id": "S07224",
    "name": "Baiano di Spoleto",
    "regionId": "6",
    "lat": 42.726238,
    "lon": 12.663615,
    "lefrecceId": 830007224
  },
  {
    "id": "S00094",
    "name": "Balangero",
    "regionId": null,
    "lat": null,
    "lon": null,
    "lefrecceId": 830000094
  },
  {
    "id": "S07964",
    "name": "Balanzano",
    "regionId": null,
    "lat": null,
    "lon": null,
    "lefrecceId": null
  },
  {
    "id": "S03418",
    "name": "Balatonfoeldvar",
    "regionId": null,
    "lat": null,
    "lon": null,
    "lefrecceId": 550003418
  },
  {
    "id": "S03459",
    "name": "Balatonlelle",
    "regionId": null,
    "lat": null,
    "lon": null,
    "lefrecceId": 550003459
  },
  {
    "id": "S03566",
    "name": "Balatonszentgyorgy",
    "regionId": null,
    "lat": null,
    "lon": null,
    "lefrecceId": null
  },
  {
    "id": "S00460",
    "name": "Baldichieri",
    "regionId": "3",
    "lat": 44.899204,
    "lon": 8.091198,
    "lefrecceId": 830000460
  },
  {
    "id": "S12122",
    "name": "Balestrate",
    "regionId": "14",
    "lat": 38.053364,
    "lon": 13.007374,
    "lefrecceId": 830012122
  },
  {
    "id": "S08856",
    "name": "Balsorano",
    "regionId": "19",
    "lat": 41.809427,
    "lon": 13.556546,
    "lefrecceId": 830008856
  },
  {
    "id": "S09830",
    "name": "Balvano R.",
    "regionId": "15",
    "lat": 40.649993,
    "lon": 15.495304,
    "lefrecceId": null
  },
  {
    "id": "S00178",
    "name": "Balzola",
    "regionId": "3",
    "lat": 45.173985,
    "lon": 8.402174,
    "lefrecceId": 830000178
  },
  {
    "id": "S00732",
    "name": "Bandito",
    "regionId": "3",
    "lat": 44.722075,
    "lon": 7.819452,
    "lefrecceId": 830000732
  },
  {
    "id": "S09832",
    "name": "Baragiano",
    "regionId": "15",
    "lat": 40.695213,
    "lon": 15.569206,
    "lefrecceId": 830009832
  },
  {
    "id": "S09458",
    "name": "Baranello",
    "regionId": "7",
    "lat": 41.5176,
    "lon": 14.596314,
    "lefrecceId": 830009458
  },
  {
    "id": "S01741",
    "name": "Barasso - Comerio",
    "regionId": null,
    "lat": null,
    "lon": null,
    "lefrecceId": null
  },
  {
    "id": "S06806",
    "name": "Barberino Val d'Elsa",
    "regionId": "13",
    "lat": 43.499322171148,
    "lon": 11.111110440677,
    "lefrecceId": null
  },
  {
    "id": "S01932",
    "name": "Barbianello",
    "regionId": "1",
    "lat": 45.07263,
    "lon": 9.204165,
    "lefrecceId": 830001932
  },
  {
    "id": "S05905",
    "name": "Barbiano",
    "regionId": "8",
    "lat": 44.387263,
    "lon": 11.878086,
    "lefrecceId": 830005905
  },
  {
    "id": "S12971",
    "name": "Barbusi",
    "regionId": "20",
    "lat": 39.203024,
    "lon": 8.501702,
    "lefrecceId": null
  },
  {
    "id": "S12041",
    "name": "Barcellona",
    "regionId": "14",
    "lat": 38.14918,
    "lon": 15.212499,
    "lefrecceId": 830014967
  },
  {
    "id": "S05929",
    "name": "Barco",
    "regionId": null,
    "lat": null,
    "lon": null,
    "lefrecceId": null
  },
  {
    "id": "S00202",
    "name": "Bardonecchia",
    "regionId": "3",
    "lat": 45.076447,
    "lon": 6.709959,
    "lefrecceId": 830000202
  },
  {
    "id": "S06303",
    "name": "Barga Gallicano",
    "regionId": "13",
    "lat": 44.068114,
    "lon": 10.451938,
    "lefrecceId": null
  },
  {
    "id": "S13094",
    "name": "Bari Ceglie-carbonara",
    "regionId": null,
    "lat": null,
    "lon": null,
    "lefrecceId": null
  },
  {
    "id": "S11119",
    "name": "Bari Centrale",
    "regionId": "16",
    "lat": 41.11774,
    "lon": 16.869601,
    "lefrecceId": 830011119
  },
  {
    "id": "S13201",
    "name": "Bari Centrale (fc)",
    "regionId": null,
    "lat": null,
    "lon": null,
    "lefrecceId": null
  },
  {
    "id": "S13095",
    "name": "Bari La Fitta",
    "regionId": null,
    "lat": null,
    "lon": null,
    "lefrecceId": null
  },
  {
    "id": "S11118",
    "name": "Bari Palese Macchie",
    "regionId": "16",
    "lat": 41.151583,
    "lon": 16.766902,
    "lefrecceId": null
  },
  {
    "id": "S11148",
    "name": "Bari Parco Nord",
    "regionId": "16",
    "lat": 41.123916,
    "lon": 16.837018,
    "lefrecceId": 830011148
  },
  {
    "id": "S11149",
    "name": "Bari Parco Nord Fascio Taranto",
    "regionId": null,
    "lat": null,
    "lon": null,
    "lefrecceId": null
  },
  {
    "id": "S11125",
    "name": "Bari Parco Sud",
    "regionId": "16",
    "lat": 41.111822,
    "lon": 16.914736,
    "lefrecceId": 830011125
  },
  {
    "id": "S11513",
    "name": "Bari S. Andrea",
    "regionId": "16",
    "lat": 41.105467,
    "lon": 16.830255,
    "lefrecceId": null
  },
  {
    "id": "S11150",
    "name": "Bari S. Giorgio",
    "regionId": "16",
    "lat": 41.093779,
    "lon": 16.950084,
    "lefrecceId": null
  },
  {
    "id": "S11116",
    "name": "Bari S. Spirito",
    "regionId": "16",
    "lat": 41.159653,
    "lon": 16.746324,
    "lefrecceId": 830011116
  },
  {
    "id": "S13092",
    "name": "Bari Sud Est",
    "regionId": null,
    "lat": null,
    "lon": null,
    "lefrecceId": null
  },
  {
    "id": "S41487",
    "name": "Bari Terminal Bus",
    "regionId": "16",
    "lat": 41.11774,
    "lon": 16.869601,
    "lefrecceId": null
  },
  {
    "id": "S11126",
    "name": "Bari Torre a Mare",
    "regionId": "16",
    "lat": 41.082637,
    "lon": 16.995772,
    "lefrecceId": 830011126
  },
  {
    "id": "S11004",
    "name": "Bari Torre Quetta",
    "regionId": "16",
    "lat": 41.097236092986,
    "lon": 16.955260149704,
    "lefrecceId": null
  },
  {
    "id": "S11003",
    "name": "Bari Villaggio Del Lavoratore",
    "regionId": null,
    "lat": null,
    "lon": null,
    "lefrecceId": null
  },
  {
    "id": "S11120",
    "name": "Bari Zona Industriale",
    "regionId": null,
    "lat": null,
    "lon": null,
    "lefrecceId": null
  },
  {
    "id": "S05419",
    "name": "Baricetta",
    "regionId": "12",
    "lat": 45.060889,
    "lon": 11.995348,
    "lefrecceId": 830005419
  },
  {
    "id": "S11208",
    "name": "Barile",
    "regionId": "15",
    "lat": 40.943044,
    "lon": 15.670959,
    "lefrecceId": 830011208
  },
  {
    "id": "S01926",
    "name": "Barlassina",
    "regionId": null,
    "lat": null,
    "lon": null,
    "lefrecceId": null
  },
  {
    "id": "S11108",
    "name": "Barletta",
    "regionId": "16",
    "lat": 41.315227,
    "lon": 16.278867,
    "lefrecceId": 830011108
  },
  {
    "id": "S09520",
    "name": "Baronissi",
    "regionId": "18",
    "lat": 40.743779,
    "lon": 14.77224,
    "lefrecceId": 830009520
  },
  {
    "id": "S01929",
    "name": "Barruccana",
    "regionId": null,
    "lat": null,
    "lon": null,
    "lefrecceId": null
  },
  {
    "id": "S08204",
    "name": "Baschi-Montecchio",
    "regionId": "6",
    "lat": 42.68685,
    "lon": 12.203496,
    "lefrecceId": null
  },
  {
    "id": "S02832",
    "name": "Basiliano",
    "regionId": "10",
    "lat": 46.012737,
    "lon": 13.109233,
    "lefrecceId": 830002832
  },
  {
    "id": "S02520",
    "name": "Bassano del Grappa",
    "regionId": "12",
    "lat": 45.766697,
    "lon": 11.741525,
    "lefrecceId": 830002520
  },
  {
    "id": "S08208",
    "name": "Bassano in Teverina",
    "regionId": "6",
    "lat": 42.483551,
    "lon": 12.333556,
    "lefrecceId": null
  },
  {
    "id": "S08312",
    "name": "Bassano Romano",
    "regionId": "5",
    "lat": 42.212444,
    "lon": 12.152302,
    "lefrecceId": null
  },
  {
    "id": "S07007",
    "name": "Bastia",
    "regionId": "6",
    "lat": 43.07133,
    "lon": 12.547735,
    "lefrecceId": 830007007
  },
  {
    "id": "S00908",
    "name": "Bastia Mondovi'",
    "regionId": "3",
    "lat": 44.439398,
    "lon": 7.891671,
    "lefrecceId": null
  },
  {
    "id": "S05702",
    "name": "Battaglia Terme",
    "regionId": "12",
    "lat": 45.291475,
    "lon": 11.77838,
    "lefrecceId": 830005702
  },
  {
    "id": "S09823",
    "name": "Battipaglia",
    "regionId": "18",
    "lat": 40.605789,
    "lon": 14.98324,
    "lefrecceId": 830009823
  },
  {
    "id": "S12875",
    "name": "Bauladu Milis",
    "regionId": "20",
    "lat": 40.020722,
    "lon": 8.687123,
    "lefrecceId": null
  },
  {
    "id": "S01015",
    "name": "Baveno",
    "regionId": "3",
    "lat": 45.909105,
    "lon": 8.502121,
    "lefrecceId": 830001015
  },
  {
    "id": "S00807",
    "name": "Bazzana",
    "regionId": "3",
    "lat": 44.777094,
    "lon": 8.401557,
    "lefrecceId": 830000807
  },
  {
    "id": "S07436",
    "name": "Bazzano",
    "regionId": null,
    "lat": null,
    "lon": null,
    "lefrecceId": null
  },
  {
    "id": "S05975",
    "name": "Bazzano (fer)",
    "regionId": null,
    "lat": null,
    "lon": null,
    "lefrecceId": null
  },
  {
    "id": "S00203",
    "name": "Beaulard",
    "regionId": "3",
    "lat": 45.046495,
    "lon": 6.759713,
    "lefrecceId": 830000203
  },
  {
    "id": "S07422",
    "name": "Beffi",
    "regionId": "19",
    "lat": 42.197341,
    "lon": 13.660759,
    "lefrecceId": 830007422
  },
  {
    "id": "S00901",
    "name": "Beinette",
    "regionId": "3",
    "lat": 44.36782,
    "lon": 7.644884,
    "lefrecceId": 830000901
  },
  {
    "id": "S01864",
    "name": "Belgioioso",
    "regionId": "1",
    "lat": 45.16456,
    "lon": 9.316875,
    "lefrecceId": 830001864
  },
  {
    "id": "S01017",
    "name": "Belgirate",
    "regionId": "3",
    "lat": 45.843337,
    "lon": 8.570821,
    "lefrecceId": 830001017
  },
  {
    "id": "S09831",
    "name": "Bella Muro",
    "regionId": "15",
    "lat": 40.700914,
    "lon": 15.542936,
    "lefrecceId": null
  },
  {
    "id": "S01409",
    "name": "Bellano Tartavelle Terme",
    "regionId": "1",
    "lat": 46.039448,
    "lon": 9.302776,
    "lefrecceId": null
  },
  {
    "id": "S07902",
    "name": "Bellante Ripattone",
    "regionId": "19",
    "lat": 42.705775,
    "lon": 13.837978,
    "lefrecceId": null
  },
  {
    "id": "S05817",
    "name": "Bellaria",
    "regionId": "8",
    "lat": 44.150249,
    "lon": 12.461168,
    "lefrecceId": 830005817
  },
  {
    "id": "S11512",
    "name": "Bellavista",
    "regionId": "16",
    "lat": 40.517077,
    "lon": 17.176892,
    "lefrecceId": null
  },
  {
    "id": "S00985",
    "name": "Bellinzago",
    "regionId": "3",
    "lat": 45.566681,
    "lon": 8.627652,
    "lefrecceId": 830000985
  },
  {
    "id": "S00300",
    "name": "Bellinzona",
    "regionId": null,
    "lat": null,
    "lon": null,
    "lefrecceId": null
  },
  {
    "id": "S07061",
    "name": "Bellisio Solfare",
    "regionId": "11",
    "lat": 43.520379,
    "lon": 12.823977,
    "lefrecceId": null
  },
  {
    "id": "S02559",
    "name": "Belluno",
    "regionId": "12",
    "lat": 46.141594,
    "lon": 12.209703,
    "lefrecceId": null
  },
  {
    "id": "S11743",
    "name": "Belmonte Calabro",
    "regionId": "17",
    "lat": 39.164427,
    "lon": 16.064515,
    "lefrecceId": null
  },
  {
    "id": "S11732",
    "name": "Belvedere Marittimo",
    "regionId": "17",
    "lat": 39.616549,
    "lon": 15.853039,
    "lefrecceId": null
  },
  {
    "id": "S09311",
    "name": "Benevento",
    "regionId": "18",
    "lat": 41.141901,
    "lon": 14.769998,
    "lefrecceId": null
  },
  {
    "id": "S09472",
    "name": "Benevento Acquafredda",
    "regionId": null,
    "lat": null,
    "lon": null,
    "lefrecceId": null
  },
  {
    "id": "S09011",
    "name": "Benevento Appia",
    "regionId": null,
    "lat": null,
    "lon": null,
    "lefrecceId": null
  },
  {
    "id": "S09530",
    "name": "Benevento Arco Traiano",
    "regionId": "18",
    "lat": 41.136834,
    "lon": 14.777662,
    "lefrecceId": null
  },
  {
    "id": "S09509",
    "name": "Benevento Porta Rufina",
    "regionId": "18",
    "lat": 41.123564,
    "lon": 14.784315,
    "lefrecceId": null
  },
  {
    "id": "S09012",
    "name": "Benevento Rione Liberta'",
    "regionId": null,
    "lat": null,
    "lon": null,
    "lefrecceId": null
  },
  {
    "id": "S06158",
    "name": "Berceto",
    "regionId": "8",
    "lat": 44.555912,
    "lon": 9.931759,
    "lefrecceId": null
  },
  {
    "id": "S12859",
    "name": "Berchidda",
    "regionId": "20",
    "lat": 40.772052,
    "lon": 9.181312,
    "lefrecceId": null
  },
  {
    "id": "S00838",
    "name": "Bergamasco",
    "regionId": "3",
    "lat": 44.819891,
    "lon": 8.461447,
    "lefrecceId": null
  },
  {
    "id": "S01529",
    "name": "Bergamo",
    "regionId": "1",
    "lat": 45.690271,
    "lon": 9.675082,
    "lefrecceId": null
  },
  {
    "id": "S11460",
    "name": "Bernalda",
    "regionId": "15",
    "lat": 40.397616,
    "lon": 16.682281,
    "lefrecceId": null
  },
  {
    "id": "S01488",
    "name": "Besana",
    "regionId": "1",
    "lat": 45.702824,
    "lon": 9.28288,
    "lefrecceId": null
  },
  {
    "id": "S01145",
    "name": "Besnate",
    "regionId": "1",
    "lat": 45.695409,
    "lon": 8.761072,
    "lefrecceId": null
  },
  {
    "id": "S01141",
    "name": "Besozzo",
    "regionId": "1",
    "lat": 45.842188,
    "lon": 8.662997,
    "lefrecceId": null
  },
  {
    "id": "S01007",
    "name": "Beura Cardezza",
    "regionId": "3",
    "lat": 46.068341,
    "lon": 8.289627,
    "lefrecceId": null
  },
  {
    "id": "S04482",
    "name": "Bevera",
    "regionId": "2",
    "lat": 43.825303,
    "lon": 7.579157,
    "lefrecceId": null
  },
  {
    "id": "S02391",
    "name": "Bevilacqua",
    "regionId": "12",
    "lat": 45.230145,
    "lon": 11.398643,
    "lefrecceId": null
  },
  {
    "id": "S05119",
    "name": "Biagioni Lagacci",
    "regionId": "8",
    "lat": 44.086359,
    "lon": 10.948257,
    "lefrecceId": null
  },
  {
    "id": "S11855",
    "name": "Bianco",
    "regionId": "17",
    "lat": 38.089072,
    "lon": 16.153348,
    "lefrecceId": null
  },
  {
    "id": "S00238",
    "name": "Bianze'",
    "regionId": "3",
    "lat": 45.309488,
    "lon": 8.115523,
    "lefrecceId": null
  },
  {
    "id": "S01438",
    "name": "Bianzone",
    "regionId": "1",
    "lat": 46.179383,
    "lon": 10.112507,
    "lefrecceId": null
  },
  {
    "id": "S01483",
    "name": "Biassono-Lesmo Parco",
    "regionId": "1",
    "lat": 45.632209,
    "lon": 9.298408,
    "lefrecceId": null
  },
  {
    "id": "S05927",
    "name": "Bibbiano",
    "regionId": null,
    "lat": null,
    "lon": null,
    "lefrecceId": null
  },
  {
    "id": "S05926",
    "name": "Bibbiano Via Monti",
    "regionId": null,
    "lat": null,
    "lon": null,
    "lefrecceId": null
  },
  {
    "id": "S06076",
    "name": "Bibbiena",
    "regionId": null,
    "lat": null,
    "lon": null,
    "lefrecceId": null
  },
  {
    "id": "S06077",
    "name": "Bibbiena Corsalone",
    "regionId": null,
    "lat": null,
    "lon": null,
    "lefrecceId": null
  },
  {
    "id": "S00522",
    "name": "Bibiana",
    "regionId": "3",
    "lat": 44.809941,
    "lon": 7.285727,
    "lefrecceId": null
  },
  {
    "id": "S12338",
    "name": "Bicocca",
    "regionId": "14",
    "lat": 37.460617,
    "lon": 15.044594,
    "lefrecceId": null
  },
  {
    "id": "S00970",
    "name": "Biella Chiavazza",
    "regionId": "3",
    "lat": 45.568084,
    "lon": 8.066787,
    "lefrecceId": null
  },
  {
    "id": "S00070",
    "name": "Biella S. Paolo",
    "regionId": "3",
    "lat": 45.557334,
    "lon": 8.067541,
    "lefrecceId": null
  },
  {
    "id": "S06611",
    "name": "Biforco",
    "regionId": "13",
    "lat": 44.068431,
    "lon": 11.602243,
    "lefrecceId": null
  },
  {
    "id": "S11113",
    "name": "Bisceglie",
    "regionId": "16",
    "lat": 41.235445,
    "lon": 16.499484,
    "lefrecceId": null
  },
  {
    "id": "S00870",
    "name": "Bistagno",
    "regionId": "3",
    "lat": 44.659256,
    "lon": 8.372057,
    "lefrecceId": null
  },
  {
    "id": "S01202",
    "name": "Bisuschio Viggiu",
    "regionId": "1",
    "lat": 45.870658,
    "lon": 8.887544,
    "lefrecceId": null
  },
  {
    "id": "S11501",
    "name": "Bitetto Palo del Colle",
    "regionId": "16",
    "lat": 41.041481,
    "lon": 16.74053,
    "lefrecceId": null
  },
  {
    "id": "S11252",
    "name": "Bitritto",
    "regionId": null,
    "lat": null,
    "lon": null,
    "lefrecceId": null
  },
  {
    "id": "S05048",
    "name": "Biv.venezia",
    "regionId": null,
    "lat": null,
    "lon": null,
    "lefrecceId": null
  },
  {
    "id": "S03313",
    "name": "Bivio d'Aurisina",
    "regionId": "10",
    "lat": 45.754253,
    "lon": 13.655777,
    "lefrecceId": null
  },
  {
    "id": "S01778",
    "name": "Boario Terme",
    "regionId": null,
    "lat": null,
    "lon": null,
    "lefrecceId": null
  },
  {
    "id": "S09763",
    "name": "Boccia al Mauro",
    "regionId": "18",
    "lat": 40.732794,
    "lon": 14.471878,
    "lefrecceId": null
  },
  {
    "id": "S04709",
    "name": "Bogliasco",
    "regionId": "2",
    "lat": 44.379207,
    "lon": 9.066042,
    "lefrecceId": null
  },
  {
    "id": "S09453",
    "name": "Boiano",
    "regionId": "7",
    "lat": 41.487883,
    "lon": 14.474551,
    "lefrecceId": null
  },
  {
    "id": "S02839",
    "name": "Bojon",
    "regionId": null,
    "lat": null,
    "lon": null,
    "lefrecceId": null
  },
  {
    "id": "S06028",
    "name": "Bolgheri",
    "regionId": "13",
    "lat": 43.244664,
    "lon": 10.550548,
    "lefrecceId": null
  },
  {
    "id": "S01071",
    "name": "Bollate Centro",
    "regionId": null,
    "lat": null,
    "lon": null,
    "lefrecceId": null
  },
  {
    "id": "S01072",
    "name": "Bollate Nord",
    "regionId": null,
    "lat": null,
    "lon": null,
    "lefrecceId": null
  },
  {
    "id": "S05100",
    "name": "Bologna Borgo Panigale",
    "regionId": "8",
    "lat": 44.515024,
    "lon": 11.284728,
    "lefrecceId": 830005100
  },
  {
    "id": "S05043",
    "name": "Bologna C. Le",
    "regionId": "8",
    "lat": 44.50626,
    "lon": 11.342267,
    "lefrecceId": null
  },
  {
    "id": "S05046",
    "name": "Bologna C. Le/AV",
    "regionId": "8",
    "lat": 44.50626,
    "lon": 11.342267,
    "lefrecceId": null
  },
  {
    "id": "S05725",
    "name": "Bologna Corticella",
    "regionId": "8",
    "lat": 44.551985,
    "lon": 11.35401,
    "lefrecceId": 830005725
  },
  {
    "id": "S05020",
    "name": "Bologna Fiere",
    "regionId": "8",
    "lat": 44.512742,
    "lon": 11.368809,
    "lefrecceId": null
  },
  {
    "id": "S05140",
    "name": "Bologna Mazzini",
    "regionId": "8",
    "lat": 44.482284,
    "lon": 11.376271,
    "lefrecceId": 830005140
  },
  {
    "id": "S05042",
    "name": "Bologna Ravone",
    "regionId": "8",
    "lat": 44.510244,
    "lon": 11.320029,
    "lefrecceId": null
  },
  {
    "id": "S05989",
    "name": "Bologna Rimesse",
    "regionId": null,
    "lat": null,
    "lon": null,
    "lefrecceId": null
  },
  {
    "id": "S05130",
    "name": "Bologna S. Ruffillo",
    "regionId": "8",
    "lat": 44.462657,
    "lon": 11.372967,
    "lefrecceId": 830005130
  },
  {
    "id": "S05081",
    "name": "Bologna San Vitale",
    "regionId": null,
    "lat": null,
    "lon": null,
    "lefrecceId": 830005081
  },
  {
    "id": "S05991",
    "name": "Bologna Via Larga",
    "regionId": null,
    "lat": null,
    "lon": null,
    "lefrecceId": null
  },
  {
    "id": "S05086",
    "name": "Bologna Zanardi",
    "regionId": null,
    "lat": null,
    "lon": null,
    "lefrecceId": null
  },
  {
    "id": "S02026",
    "name": "Bolzano",
    "regionId": "22",
    "lat": 46.496346,
    "lon": 11.358556,
    "lefrecceId": null
  },
  {
    "id": "S00014",
    "name": "Bolzano Novarese",
    "regionId": "3",
    "lat": 45.759357,
    "lon": 8.440754,
    "lefrecceId": null
  },
  {
    "id": "S02226",
    "name": "Bolzano Sud",
    "regionId": "9",
    "lat": 46.472617,
    "lon": 11.33334,
    "lefrecceId": null
  },
  {
    "id": "S07993",
    "name": "Bomba Torricella",
    "regionId": null,
    "lat": null,
    "lon": null,
    "lefrecceId": null
  },
  {
    "id": "S04730",
    "name": "Bonassola",
    "regionId": "2",
    "lat": 44.184867,
    "lon": 9.582673,
    "lefrecceId": null
  },
  {
    "id": "S05165",
    "name": "Bondeno",
    "regionId": null,
    "lat": null,
    "lon": null,
    "lefrecceId": null
  },
  {
    "id": "S09464",
    "name": "Bonefro S. Croce",
    "regionId": "7",
    "lat": 41.710522,
    "lon": 14.860799,
    "lefrecceId": null
  },
  {
    "id": "S02383",
    "name": "Bonferraro",
    "regionId": "12",
    "lat": 45.185651,
    "lon": 11.009247,
    "lefrecceId": null
  },
  {
    "id": "S12867",
    "name": "Bonorva",
    "regionId": "20",
    "lat": 40.417763,
    "lon": 8.760707,
    "lefrecceId": null
  },
  {
    "id": "S04503",
    "name": "Bordighera",
    "regionId": "2",
    "lat": 43.778313,
    "lon": 7.663504,
    "lefrecceId": null
  },
  {
    "id": "S05963",
    "name": "Boretto",
    "regionId": null,
    "lat": null,
    "lon": null,
    "lefrecceId": null
  },
  {
    "id": "S00086",
    "name": "Borgaro",
    "regionId": null,
    "lat": null,
    "lon": null,
    "lefrecceId": null
  },
  {
    "id": "S02051",
    "name": "Borghetto",
    "regionId": "9",
    "lat": 45.696721,
    "lon": 10.927083,
    "lefrecceId": null
  },
  {
    "id": "S06100",
    "name": "Borghetto Parmense",
    "regionId": "8",
    "lat": 44.837198,
    "lon": 10.1177,
    "lefrecceId": null
  },
  {
    "id": "S04518",
    "name": "Borghetto Santo Spirito",
    "regionId": "2",
    "lat": 44.109006,
    "lon": 8.242346,
    "lefrecceId": null
  },
  {
    "id": "S04521",
    "name": "Borgio Verezzi",
    "regionId": "2",
    "lat": 44.157722,
    "lon": 8.30908,
    "lefrecceId": null
  },
  {
    "id": "S09526",
    "name": "Borgo",
    "regionId": "18",
    "lat": 40.845976,
    "lon": 14.784092,
    "lefrecceId": null
  },
  {
    "id": "S06410",
    "name": "Borgo a Buggiano",
    "regionId": "13",
    "lat": 43.880724,
    "lon": 10.730079,
    "lefrecceId": null
  },
  {
    "id": "S06309",
    "name": "Borgo a Mozzano",
    "regionId": "13",
    "lat": 43.977207,
    "lon": 10.541285,
    "lefrecceId": null
  },
  {
    "id": "S04214",
    "name": "Borgo Fornari per Voltaggio",
    "regionId": "2",
    "lat": 44.588379,
    "lon": 8.938295,
    "lefrecceId": null
  },
  {
    "id": "S00032",
    "name": "Borgo Lavezzaro",
    "regionId": "3",
    "lat": 45.318783,
    "lon": 8.703242,
    "lefrecceId": 830000032
  },
  {
    "id": "S00171",
    "name": "Borgo Revel",
    "regionId": "3",
    "lat": 45.189827,
    "lon": 8.02021,
    "lefrecceId": null
  },
  {
    "id": "N00202",
    "name": "Borgo S. Giovanni",
    "regionId": null,
    "lat": null,
    "lon": null,
    "lefrecceId": null
  },
  {
    "id": "S06704",
    "name": "Borgo S. L. Rimorelli",
    "regionId": "13",
    "lat": 43.953279,
    "lon": 11.400076,
    "lefrecceId": null
  },
  {
    "id": "S06604",
    "name": "Borgo S. Lorenzo",
    "regionId": "13",
    "lat": 43.959822,
    "lon": 11.380422,
    "lefrecceId": null
  },
  {
    "id": "S00315",
    "name": "Borgo S. Martino",
    "regionId": "3",
    "lat": 45.087083,
    "lon": 8.520661,
    "lefrecceId": null
  },
  {
    "id": "S00613",
    "name": "Borgo San Dalmazzo",
    "regionId": "3",
    "lat": 44.326249,
    "lon": 7.486111,
    "lefrecceId": null
  },
  {
    "id": "S00981",
    "name": "Borgo Ticino",
    "regionId": "3",
    "lat": 45.691943,
    "lon": 8.602483,
    "lefrecceId": null
  },
  {
    "id": "S06161",
    "name": "Borgo Val di Taro",
    "regionId": "8",
    "lat": 44.486522,
    "lon": 9.781489,
    "lefrecceId": null
  },
  {
    "id": "S02313",
    "name": "Borgo Valsugana Centro",
    "regionId": "21",
    "lat": 46.051182,
    "lon": 11.453967,
    "lefrecceId": null
  },
  {
    "id": "S02314",
    "name": "Borgo Valsugana Est",
    "regionId": "9",
    "lat": 46.05224,
    "lon": 11.462119,
    "lefrecceId": null
  },
  {
    "id": "S00246",
    "name": "Borgo Vercelli",
    "regionId": "3",
    "lat": 45.359252,
    "lon": 8.461474,
    "lefrecceId": null
  },
  {
    "id": "S02021",
    "name": "Borgochiesanuova",
    "regionId": null,
    "lat": null,
    "lon": null,
    "lefrecceId": null
  },
  {
    "id": "S02338",
    "name": "Borgoforte",
    "regionId": "1",
    "lat": 45.050328,
    "lon": 10.752388,
    "lefrecceId": null
  },
  {
    "id": "S00152",
    "name": "Borgofranco",
    "regionId": "3",
    "lat": 45.514775,
    "lon": 7.854612,
    "lefrecceId": null
  },
  {
    "id": "S01830",
    "name": "Borgolombardo",
    "regionId": "1",
    "lat": 45.403856,
    "lon": 9.27111,
    "lefrecceId": null
  },
  {
    "id": "S00016",
    "name": "Borgomanero",
    "regionId": "3",
    "lat": 45.701054,
    "lon": 8.468093,
    "lefrecceId": null
  },
  {
    "id": "S01788",
    "name": "Borgonato - Adro",
    "regionId": null,
    "lat": null,
    "lon": null,
    "lefrecceId": null
  },
  {
    "id": "S00210",
    "name": "Borgone",
    "regionId": "3",
    "lat": 45.123191,
    "lon": 7.236037,
    "lefrecceId": null
  },
  {
    "id": "S05152",
    "name": "Borgonuovo",
    "regionId": null,
    "lat": null,
    "lon": null,
    "lefrecceId": null
  },
  {
    "id": "S00860",
    "name": "Borgoratto",
    "regionId": "3",
    "lat": 44.835999,
    "lon": 8.538182,
    "lefrecceId": null
  },
  {
    "id": "S00104",
    "name": "Borgosesia",
    "regionId": "3",
    "lat": 45.716798,
    "lon": 8.28239,
    "lefrecceId": null
  },
  {
    "id": "S01789",
    "name": "Bornato - Calino",
    "regionId": null,
    "lat": null,
    "lon": null,
    "lefrecceId": null
  },
  {
    "id": "S12872",
    "name": "Borore",
    "regionId": "20",
    "lat": 40.218992,
    "lon": 8.809535,
    "lefrecceId": null
  },
  {
    "id": "S02390",
    "name": "Boschi S. Anna",
    "regionId": "12",
    "lat": 45.217328,
    "lon": 11.362302,
    "lefrecceId": null
  },
  {
    "id": "S09452",
    "name": "Bosco Redole",
    "regionId": "7",
    "lat": 41.459299,
    "lon": 14.587884,
    "lefrecceId": null
  },
  {
    "id": "S00882",
    "name": "Bosconero",
    "regionId": null,
    "lat": null,
    "lon": null,
    "lefrecceId": null
  },
  {
    "id": "S09754",
    "name": "Boscoreale",
    "regionId": "18",
    "lat": 40.770786,
    "lon": 14.48017,
    "lefrecceId": null
  },
  {
    "id": "S11829",
    "name": "Botricello",
    "regionId": "17",
    "lat": 38.933943,
    "lon": 16.857433,
    "lefrecceId": null
  },
  {
    "id": "S03057",
    "name": "Bottenicchio Z. I.",
    "regionId": null,
    "lat": null,
    "lon": null,
    "lefrecceId": null
  },
  {
    "id": "S11860",
    "name": "Bova Marina",
    "regionId": "17",
    "lat": 37.930269,
    "lon": 15.923897,
    "lefrecceId": null
  },
  {
    "id": "S11854",
    "name": "Bovalino",
    "regionId": "17",
    "lat": 38.149087,
    "lon": 16.180584,
    "lefrecceId": null
  },
  {
    "id": "S09321",
    "name": "Bovino Deliceto",
    "regionId": "16",
    "lat": 41.27835,
    "lon": 15.369255,
    "lefrecceId": null
  },
  {
    "id": "S01085",
    "name": "Boviso Masciago - Mombello",
    "regionId": null,
    "lat": null,
    "lon": null,
    "lefrecceId": null
  },
  {
    "id": "S02363",
    "name": "Bovolone",
    "regionId": "12",
    "lat": 45.254446,
    "lon": 11.123862,
    "lefrecceId": null
  },
  {
    "id": "S01920",
    "name": "Bozzolo",
    "regionId": "1",
    "lat": 45.107246,
    "lon": 10.472655,
    "lefrecceId": null
  },
  {
    "id": "S00821",
    "name": "Bra",
    "regionId": "3",
    "lat": 44.693556,
    "lon": 7.848643,
    "lefrecceId": null
  },
  {
    "id": "S08315",
    "name": "Bracciano",
    "regionId": "5",
    "lat": 42.103667,
    "lon": 12.173023,
    "lefrecceId": null
  },
  {
    "id": "S04803",
    "name": "Bragno",
    "regionId": "2",
    "lat": 44.371679,
    "lon": 8.304473,
    "lefrecceId": null
  },
  {
    "id": "S11857",
    "name": "Brancaleone",
    "regionId": "17",
    "lat": 37.965475,
    "lon": 16.103301,
    "lefrecceId": null
  },
  {
    "id": "S00231",
    "name": "Brandizzo",
    "regionId": "3",
    "lat": 45.178915,
    "lon": 7.841218,
    "lefrecceId": null
  },
  {
    "id": "S00622",
    "name": "Breil Sur Roya",
    "regionId": "3",
    "lat": 43.890267,
    "lon": 7.530915,
    "lefrecceId": null
  },
  {
    "id": "S01452",
    "name": "Brenna-Alzate",
    "regionId": "1",
    "lat": 45.754044,
    "lon": 9.183312,
    "lefrecceId": null
  },
  {
    "id": "S02001",
    "name": "Brennero",
    "regionId": "22",
    "lat": 47.004117,
    "lon": 11.505711,
    "lefrecceId": null
  },
  {
    "id": "S01005",
    "name": "Breno",
    "regionId": null,
    "lat": null,
    "lon": null,
    "lefrecceId": null
  },
  {
    "id": "S01717",
    "name": "Brescia",
    "regionId": "1",
    "lat": 45.532315,
    "lon": 10.212828,
    "lefrecceId": null
  },
  {
    "id": "S01797",
    "name": "Brescia Borgo San Giovanni",
    "regionId": null,
    "lat": null,
    "lon": null,
    "lefrecceId": null
  },
  {
    "id": "S01813",
    "name": "Brescia Est Piazzale Sud",
    "regionId": null,
    "lat": null,
    "lon": null,
    "lefrecceId": null
  },
  {
    "id": "S17451",
    "name": "Brescia Violino",
    "regionId": null,
    "lat": null,
    "lon": null,
    "lefrecceId": null
  },
  {
    "id": "S01930",
    "name": "Bressana Argine",
    "regionId": "1",
    "lat": 45.072739,
    "lon": 9.137038,
    "lefrecceId": null
  },
  {
    "id": "S01805",
    "name": "Bressana Bottarone",
    "regionId": "1",
    "lat": 45.086298,
    "lon": 9.110602,
    "lefrecceId": null
  },
  {
    "id": "S02014",
    "name": "Bressanone",
    "regionId": "9",
    "lat": 46.710088,
    "lon": 11.649677,
    "lefrecceId": null
  },
  {
    "id": "S11757",
    "name": "Briatico",
    "regionId": "17",
    "lat": 38.725447,
    "lon": 16.025765,
    "lefrecceId": null
  },
  {
    "id": "S00521",
    "name": "Bricherasio",
    "regionId": "3",
    "lat": 44.824336,
    "lon": 7.307513,
    "lefrecceId": null
  },
  {
    "id": "S11136",
    "name": "Brindisi",
    "regionId": "16",
    "lat": 40.634339,
    "lon": 17.938978,
    "lefrecceId": null
  },
  {
    "id": "S11451",
    "name": "Brindisi di Montagna",
    "regionId": "15",
    "lat": 40.611991,
    "lon": 15.955795,
    "lefrecceId": null
  },
  {
    "id": "S11137",
    "name": "Brindisi Marittima",
    "regionId": "16",
    "lat": 40.633543,
    "lon": 17.94863,
    "lefrecceId": null
  },
  {
    "id": "S00113",
    "name": "Briona",
    "regionId": "3",
    "lat": 45.538568,
    "lon": 8.479541,
    "lefrecceId": null
  },
  {
    "id": "S06614",
    "name": "Brisighella",
    "regionId": "8",
    "lat": 44.220565,
    "lon": 11.769757,
    "lefrecceId": null
  },
  {
    "id": "S12031",
    "name": "Brolo Ficarra",
    "regionId": "14",
    "lat": 38.159204,
    "lon": 14.830176,
    "lefrecceId": null
  },
  {
    "id": "S01944",
    "name": "Broni",
    "regionId": "1",
    "lat": 45.066263,
    "lon": 9.258751,
    "lefrecceId": null
  },
  {
    "id": "S02030",
    "name": "Bronzolo",
    "regionId": "9",
    "lat": 46.40505,
    "lon": 11.315833,
    "lefrecceId": null
  },
  {
    "id": "S00424",
    "name": "Brozolo",
    "regionId": "3",
    "lat": 45.121299,
    "lon": 8.05893,
    "lefrecceId": null
  },
  {
    "id": "S02107",
    "name": "Brunico",
    "regionId": "9",
    "lat": 46.794922,
    "lon": 11.929989,
    "lefrecceId": null
  },
  {
    "id": "S02018",
    "name": "Brunico Nord",
    "regionId": null,
    "lat": null,
    "lon": null,
    "lefrecceId": null
  },
  {
    "id": "S00837",
    "name": "Bruno",
    "regionId": "3",
    "lat": 44.797947,
    "lon": 8.439639,
    "lefrecceId": null
  },
  {
    "id": "S00209",
    "name": "Bruzolo",
    "regionId": "3",
    "lat": 45.131032,
    "lon": 7.201497,
    "lefrecceId": null
  },
  {
    "id": "S09828",
    "name": "Buccino S.",
    "regionId": "18",
    "lat": 40.600806,
    "lon": 15.374199,
    "lefrecceId": null
  },
  {
    "id": "S06911",
    "name": "Bucine",
    "regionId": "13",
    "lat": 43.480478,
    "lon": 11.617609,
    "lefrecceId": null
  },
  {
    "id": "S03088",
    "name": "Budoia Polcenigo",
    "regionId": "10",
    "lat": 46.031464,
    "lon": 12.537637,
    "lefrecceId": null
  },
  {
    "id": "S05017",
    "name": "Budrio",
    "regionId": null,
    "lat": null,
    "lon": null,
    "lefrecceId": null
  },
  {
    "id": "S05996",
    "name": "Budrio Centro",
    "regionId": null,
    "lat": null,
    "lon": null,
    "lefrecceId": null
  },
  {
    "id": "S08538",
    "name": "Bugnara",
    "regionId": "19",
    "lat": 42.031166,
    "lon": 13.862082,
    "lefrecceId": null
  },
  {
    "id": "S06874",
    "name": "Buonconvento",
    "regionId": "13",
    "lat": 43.135503,
    "lon": 11.483773,
    "lefrecceId": null
  },
  {
    "id": "S12016",
    "name": "Buonfornello",
    "regionId": "14",
    "lat": 37.972052,
    "lon": 13.816408,
    "lefrecceId": null
  },
  {
    "id": "S00054",
    "name": "Buronzo",
    "regionId": "3",
    "lat": 45.47179,
    "lon": 8.2667,
    "lefrecceId": null
  },
  {
    "id": "S02595",
    "name": "Busa Di Vigonza",
    "regionId": null,
    "lat": null,
    "lon": null,
    "lefrecceId": null
  },
  {
    "id": "S04215",
    "name": "Busalla",
    "regionId": "2",
    "lat": 44.57558,
    "lon": 8.943611,
    "lefrecceId": null
  },
  {
    "id": "S00704",
    "name": "Busca",
    "regionId": "3",
    "lat": 44.520585,
    "lon": 7.481589,
    "lefrecceId": null
  },
  {
    "id": "S02563",
    "name": "Busche Lentiai Mel",
    "regionId": "12",
    "lat": 46.040092,
    "lon": 11.979251,
    "lefrecceId": null
  },
  {
    "id": "S01963",
    "name": "Busseto",
    "regionId": "8",
    "lat": 44.974692,
    "lon": 10.038909,
    "lefrecceId": null
  },
  {
    "id": "S07704",
    "name": "Bussi",
    "regionId": "19",
    "lat": 42.194154,
    "lon": 13.849075,
    "lefrecceId": null
  },
  {
    "id": "S00208",
    "name": "Bussoleno",
    "regionId": "3",
    "lat": 45.139631,
    "lon": 7.144819,
    "lefrecceId": null
  },
  {
    "id": "S01031",
    "name": "Busto Arsizio",
    "regionId": "1",
    "lat": 45.616164,
    "lon": 8.865031,
    "lefrecceId": null
  },
  {
    "id": "S01137",
    "name": "Busto Arsizio N.",
    "regionId": null,
    "lat": null,
    "lon": null,
    "lefrecceId": null
  },
  {
    "id": "N00107",
    "name": "Busto Arsizio RFI",
    "regionId": null,
    "lat": null,
    "lon": null,
    "lefrecceId": null
  },
  {
    "id": "S01482",
    "name": "Buttafava",
    "regionId": "1",
    "lat": 45.62141,
    "lon": 9.301185,
    "lefrecceId": 830001482
  },
  {
    "id": "S05301",
    "name": "Buttapietra",
    "regionId": "12",
    "lat": 45.338787,
    "lon": 10.988059,
    "lefrecceId": null
  },
  {
    "id": "S03029",
    "name": "Buttrio",
    "regionId": "10",
    "lat": 46.012664,
    "lon": 13.329039,
    "lefrecceId": null
  },
  {
    "id": "S06044",
    "name": "Ca' di Boschetti",
    "regionId": "2",
    "lat": 44.117925,
    "lon": 9.857449,
    "lefrecceId": null
  },
  {
    "id": "S01088",
    "name": "Cabiate",
    "regionId": null,
    "lat": null,
    "lon": null,
    "lefrecceId": null
  },
  {
    "id": "S05006",
    "name": "Cadeo",
    "regionId": "8",
    "lat": 44.967283,
    "lon": 9.853181,
    "lefrecceId": null
  },
  {
    "id": "S01759",
    "name": "Cadorago",
    "regionId": null,
    "lat": null,
    "lon": null,
    "lefrecceId": null
  },
  {
    "id": "S12891",
    "name": "Cagliari",
    "regionId": "20",
    "lat": 39.216078,
    "lon": 9.107984,
    "lefrecceId": null
  },
  {
    "id": "S12890",
    "name": "Cagliari Elmas",
    "regionId": "20",
    "lat": 39.264193,
    "lon": 9.045497,
    "lefrecceId": null
  },
  {
    "id": "S09025",
    "name": "Caiazzo",
    "regionId": null,
    "lat": null,
    "lon": null,
    "lefrecceId": null
  },
  {
    "id": "S00879",
    "name": "Cairo Montenotte",
    "regionId": "2",
    "lat": 44.394747,
    "lon": 8.278786,
    "lefrecceId": null
  },
  {
    "id": "S12851",
    "name": "Cala Sabina",
    "regionId": "20",
    "lat": 41.011012,
    "lon": 9.5881,
    "lefrecceId": null
  },
  {
    "id": "S02550",
    "name": "Calalzo Pieve Cadore Cortina",
    "regionId": "12",
    "lat": 46.443829,
    "lon": 12.388668,
    "lefrecceId": null
  },
  {
    "id": "S00833",
    "name": "Calamandrana",
    "regionId": "3",
    "lat": 44.738986,
    "lon": 8.331572,
    "lefrecceId": null
  },
  {
    "id": "S12321",
    "name": "Calatabiano",
    "regionId": "14",
    "lat": 37.814684,
    "lon": 15.226568,
    "lefrecceId": null
  },
  {
    "id": "S12151",
    "name": "Calatafimi",
    "regionId": "14",
    "lat": 37.938858,
    "lon": 12.856156,
    "lefrecceId": null
  },
  {
    "id": "S06080",
    "name": "Calbezano",
    "regionId": null,
    "lat": null,
    "lon": null,
    "lefrecceId": null
  },
  {
    "id": "S02307",
    "name": "Calceranica",
    "regionId": "9",
    "lat": 46.007384,
    "lon": 11.240713,
    "lefrecceId": null
  },
  {
    "id": "S11455",
    "name": "Calciano",
    "regionId": "15",
    "lat": 40.595117,
    "lon": 16.202526,
    "lefrecceId": null
  },
  {
    "id": "S01712",
    "name": "Calcio",
    "regionId": "1",
    "lat": 45.532937,
    "lon": 9.841342,
    "lefrecceId": null
  },
  {
    "id": "S01117",
    "name": "Calde'",
    "regionId": "1",
    "lat": 45.945812,
    "lon": 8.663157,
    "lefrecceId": null
  },
  {
    "id": "S02437",
    "name": "Caldiero",
    "regionId": "12",
    "lat": 45.41407,
    "lon": 11.169753,
    "lefrecceId": null
  },
  {
    "id": "S02308",
    "name": "Caldonazzo",
    "regionId": "9",
    "lat": 45.997575,
    "lon": 11.264815,
    "lefrecceId": null
  },
  {
    "id": "S06417",
    "name": "Calenzano",
    "regionId": "13",
    "lat": 43.856429,
    "lon": 11.14537,
    "lefrecceId": null
  },
  {
    "id": "S09620",
    "name": "Calitri Pescopagano",
    "regionId": "18",
    "lat": 40.884932,
    "lon": 15.427962,
    "lefrecceId": null
  },
  {
    "id": "S02041",
    "name": "Calliano",
    "regionId": null,
    "lat": null,
    "lon": null,
    "lefrecceId": null
  },
  {
    "id": "S02047",
    "name": "Calliano",
    "regionId": null,
    "lat": null,
    "lon": null,
    "lefrecceId": null
  },
  {
    "id": "S01524",
    "name": "Calolziocorte Olginate",
    "regionId": "1",
    "lat": 45.801619,
    "lon": 9.42698,
    "lefrecceId": null
  },
  {
    "id": "S11815",
    "name": "Calopezzati",
    "regionId": "17",
    "lat": 39.579022,
    "lon": 16.819361,
    "lefrecceId": null
  },
  {
    "id": "S12270",
    "name": "Caltagirone",
    "regionId": "14",
    "lat": 37.225276,
    "lon": 14.521165,
    "lefrecceId": null
  },
  {
    "id": "S12381",
    "name": "Caltanissetta Centrale",
    "regionId": "14",
    "lat": 37.48829,
    "lon": 14.057396,
    "lefrecceId": 830012381
  },
  {
    "id": "S12380",
    "name": "Caltanissetta Xirbi",
    "regionId": "14",
    "lat": 37.536296,
    "lon": 14.056902,
    "lefrecceId": null
  },
  {
    "id": "S00020",
    "name": "Caltignaga",
    "regionId": "3",
    "lat": 45.519167,
    "lon": 8.591602,
    "lefrecceId": null
  },
  {
    "id": "S01503",
    "name": "Calusco",
    "regionId": "1",
    "lat": 45.684113,
    "lon": 9.470646,
    "lefrecceId": null
  },
  {
    "id": "S00158",
    "name": "Caluso",
    "regionId": "3",
    "lat": 45.303194,
    "lon": 7.902568,
    "lefrecceId": null
  },
  {
    "id": "S01843",
    "name": "Calvisano",
    "regionId": "1",
    "lat": 45.346572,
    "lon": 10.349411,
    "lefrecceId": null
  },
  {
    "id": "S06043",
    "name": "Camaiore Lido Capezzano",
    "regionId": "13",
    "lat": 43.912176,
    "lon": 10.24765,
    "lefrecceId": null
  },
  {
    "id": "S06804",
    "name": "Cambiano",
    "regionId": "13",
    "lat": 43.631183,
    "lon": 10.958997,
    "lefrecceId": null
  },
  {
    "id": "S00456",
    "name": "Cambiano Santena",
    "regionId": "3",
    "lat": 44.966491,
    "lon": 7.773225,
    "lefrecceId": null
  },
  {
    "id": "S07021",
    "name": "Camerano Aspio",
    "regionId": null,
    "lat": null,
    "lon": null,
    "lefrecceId": null
  },
  {
    "id": "S12207",
    "name": "Cammarata S. Giovanni Gemini",
    "regionId": "14",
    "lat": 37.653759,
    "lon": 13.673791,
    "lefrecceId": null
  },
  {
    "id": "S01316",
    "name": "Camnago-Lentate",
    "regionId": "1",
    "lat": 45.668425,
    "lon": 9.133451,
    "lefrecceId": null
  },
  {
    "id": "S04716",
    "name": "Camogli San Fruttuoso",
    "regionId": "2",
    "lat": 44.348166,
    "lon": 9.156743,
    "lefrecceId": null
  },
  {
    "id": "S09825",
    "name": "Campagna Serre Persano",
    "regionId": "18",
    "lat": 40.595667,
    "lon": 15.113986,
    "lefrecceId": null
  },
  {
    "id": "S02837",
    "name": "Campagnalupia - Camponogara",
    "regionId": null,
    "lat": null,
    "lon": null,
    "lefrecceId": null
  },
  {
    "id": "S07219",
    "name": "Campello",
    "regionId": "6",
    "lat": 42.822814,
    "lon": 12.761253,
    "lefrecceId": null
  },
  {
    "id": "S13115",
    "name": "Campi Salentina",
    "regionId": null,
    "lat": null,
    "lon": null,
    "lefrecceId": null
  },
  {
    "id": "S06031",
    "name": "Campiglia Marittima",
    "regionId": "13",
    "lat": 43.017118,
    "lon": 10.586558,
    "lefrecceId": null
  },
  {
    "id": "S08706",
    "name": "Campo di Carne",
    "regionId": "5",
    "lat": 41.552116,
    "lon": 12.635125,
    "lefrecceId": null
  },
  {
    "id": "S08903",
    "name": "Campo di Giove",
    "regionId": "19",
    "lat": 42.007967,
    "lon": 14.041492,
    "lefrecceId": null
  },
  {
    "id": "S08919",
    "name": "Campo di Giove-Monte Maiella",
    "regionId": "19",
    "lat": 41.993262,
    "lon": 14.069088,
    "lefrecceId": null
  },
  {
    "id": "S09626",
    "name": "Campo di Nusco",
    "regionId": "18",
    "lat": 40.879143,
    "lon": 15.129255,
    "lefrecceId": null
  },
  {
    "id": "S02007",
    "name": "Campo di Trens",
    "regionId": "9",
    "lat": 46.869076,
    "lon": 11.488231,
    "lefrecceId": null
  },
  {
    "id": "S09459",
    "name": "Campobasso",
    "regionId": "7",
    "lat": 41.558137,
    "lon": 14.66393,
    "lefrecceId": null
  },
  {
    "id": "S12112",
    "name": "Campobello di Mazara",
    "regionId": "14",
    "lat": 37.636256,
    "lon": 12.733165,
    "lefrecceId": null
  },
  {
    "id": "S12385",
    "name": "Campobello Ravanusa",
    "regionId": "14",
    "lat": 37.265731,
    "lon": 13.946251,
    "lefrecceId": null
  },
  {
    "id": "S02527",
    "name": "Campodarsego",
    "regionId": "12",
    "lat": 45.505721,
    "lon": 11.900894,
    "lefrecceId": null
  },
  {
    "id": "S12017",
    "name": "Campofelice",
    "regionId": "14",
    "lat": 37.992615,
    "lon": 13.876549,
    "lefrecceId": null
  },
  {
    "id": "S12211",
    "name": "Campofranco",
    "regionId": "14",
    "lat": 37.510105,
    "lon": 13.686777,
    "lefrecceId": null
  },
  {
    "id": "S09505",
    "name": "Campolattaro",
    "regionId": "18",
    "lat": 41.285869,
    "lon": 14.726853,
    "lefrecceId": null
  },
  {
    "id": "S08602",
    "name": "Campoleone",
    "regionId": "5",
    "lat": 41.642396,
    "lon": 12.648341,
    "lefrecceId": null
  },
  {
    "id": "S09462",
    "name": "Campolieto Monacilioni",
    "regionId": "7",
    "lat": 41.642573,
    "lon": 14.76544,
    "lefrecceId": null
  },
  {
    "id": "S04105",
    "name": "Campoligure Masone",
    "regionId": "2",
    "lat": 44.530909,
    "lon": 8.700878,
    "lefrecceId": null
  },
  {
    "id": "S02840",
    "name": "Campolongo Maggiore",
    "regionId": null,
    "lat": null,
    "lon": null,
    "lefrecceId": null
  },
  {
    "id": "S11454",
    "name": "Campomaggiore",
    "regionId": "15",
    "lat": 40.550772,
    "lon": 16.086766,
    "lefrecceId": null
  },
  {
    "id": "S11020",
    "name": "Campomarino",
    "regionId": "7",
    "lat": 41.957398,
    "lon": 15.042416,
    "lefrecceId": null
  },
  {
    "id": "S12815",
    "name": "Campomela",
    "regionId": "20",
    "lat": 40.68139,
    "lon": 8.638875,
    "lefrecceId": null
  },
  {
    "id": "S06659",
    "name": "Campomigliaio",
    "regionId": "13",
    "lat": 43.937241,
    "lon": 11.303593,
    "lefrecceId": null
  },
  {
    "id": "S11745",
    "name": "Campora S. Giov.serra Aiello",
    "regionId": "17",
    "lat": 39.068402,
    "lon": 16.09102,
    "lefrecceId": null
  },
  {
    "id": "S00889",
    "name": "Campore",
    "regionId": null,
    "lat": null,
    "lon": null,
    "lefrecceId": null
  },
  {
    "id": "S06324",
    "name": "Camporgiano",
    "regionId": "13",
    "lat": 44.161448,
    "lon": 10.334849,
    "lefrecceId": null
  },
  {
    "id": "S02525",
    "name": "Camposampiero",
    "regionId": "12",
    "lat": 45.568922,
    "lon": 11.928293,
    "lefrecceId": null
  },
  {
    "id": "S05314",
    "name": "Camposanto",
    "regionId": "8",
    "lat": 44.787527,
    "lon": 11.143587,
    "lefrecceId": null
  },
  {
    "id": "S06921",
    "name": "Camucia Cortona",
    "regionId": "13",
    "lat": 43.261104,
    "lon": 11.971245,
    "lefrecceId": null
  },
  {
    "id": "S07232",
    "name": "Cancelli di Fabriano",
    "regionId": null,
    "lat": null,
    "lon": null,
    "lefrecceId": null
  },
  {
    "id": "S08735",
    "name": "Cancelliera",
    "regionId": "5",
    "lat": 41.710587,
    "lon": 12.621758,
    "lefrecceId": null
  },
  {
    "id": "S09213",
    "name": "Cancello",
    "regionId": "18",
    "lat": 40.993063,
    "lon": 14.418877,
    "lefrecceId": null
  },
  {
    "id": "S09002",
    "name": "Cancello Arnone",
    "regionId": "18",
    "lat": 41.063369,
    "lon": 14.02901,
    "lefrecceId": null
  },
  {
    "id": "S11204",
    "name": "Candela",
    "regionId": "16",
    "lat": 41.151439,
    "lon": 15.533163,
    "lefrecceId": null
  },
  {
    "id": "S00071",
    "name": "Candelo",
    "regionId": "3",
    "lat": 45.547433,
    "lon": 8.100103,
    "lefrecceId": null
  },
  {
    "id": "S00157",
    "name": "Candia Canavese",
    "regionId": "3",
    "lat": 45.329824,
    "lon": 7.891819,
    "lefrecceId": 830000157
  },
  {
    "id": "S00333",
    "name": "Candia Lomellina",
    "regionId": "1",
    "lat": 45.179911,
    "lon": 8.593156,
    "lefrecceId": null
  },
  {
    "id": "S11105",
    "name": "Candida",
    "regionId": "16",
    "lat": 41.346664,
    "lon": 15.996588,
    "lefrecceId": null
  },
  {
    "id": "S00512",
    "name": "Candiolo",
    "regionId": "3",
    "lat": 44.961155,
    "lon": 7.598973,
    "lefrecceId": null
  },
  {
    "id": "S01011",
    "name": "Candoglia Ornavasso",
    "regionId": "3",
    "lat": 45.977489,
    "lon": 8.419715,
    "lefrecceId": null
  },
  {
    "id": "S01034",
    "name": "Canegrate",
    "regionId": "1",
    "lat": 45.569235,
    "lon": 8.926593,
    "lefrecceId": null
  },
  {
    "id": "S00832",
    "name": "Canelli",
    "regionId": "3",
    "lat": 44.716716,
    "lon": 8.294544,
    "lefrecceId": null
  },
  {
    "id": "S07429",
    "name": "Canetra",
    "regionId": "5",
    "lat": 42.391578,
    "lon": 13.029159,
    "lefrecceId": null
  },
  {
    "id": "S12375",
    "name": "Canicatti'",
    "regionId": "14",
    "lat": 37.359879,
    "lon": 13.855395,
    "lefrecceId": null
  },
  {
    "id": "S12812",
    "name": "Caniga",
    "regionId": "20",
    "lat": 40.716116,
    "lon": 8.526395,
    "lefrecceId": null
  },
  {
    "id": "S08812",
    "name": "Canistro",
    "regionId": null,
    "lat": null,
    "lon": null,
    "lefrecceId": null
  },
  {
    "id": "S07009",
    "name": "Cannara",
    "regionId": "6",
    "lat": 43.019591,
    "lon": 12.628709,
    "lefrecceId": null
  },
  {
    "id": "S11406",
    "name": "Canne della Battaglia",
    "regionId": "16",
    "lat": 41.294583,
    "lon": 16.146169,
    "lefrecceId": null
  },
  {
    "id": "S01848",
    "name": "Canneto Sull'Oglio",
    "regionId": "1",
    "lat": 45.150211,
    "lon": 10.37147,
    "lefrecceId": null
  },
  {
    "id": "S13195",
    "name": "Cannole",
    "regionId": null,
    "lat": null,
    "lon": null,
    "lefrecceId": null
  },
  {
    "id": "S11402",
    "name": "Canosa di Puglia",
    "regionId": "16",
    "lat": 41.218556,
    "lon": 16.053906,
    "lefrecceId": null
  },
  {
    "id": "S08907",
    "name": "Cansano Scavi Di Ocriticum",
    "regionId": null,
    "lat": null,
    "lon": null,
    "lefrecceId": null
  },
  {
    "id": "S09451",
    "name": "Cantalupo del Sannio",
    "regionId": "7",
    "lat": 41.5174,
    "lon": 14.6671,
    "lefrecceId": null
  },
  {
    "id": "S01451",
    "name": "Cantu'",
    "regionId": "1",
    "lat": 45.752316,
    "lon": 9.130321,
    "lefrecceId": null
  },
  {
    "id": "S01313",
    "name": "Cantu'- Cermenate",
    "regionId": "1",
    "lat": 45.716236,
    "lon": 9.099284,
    "lefrecceId": null
  },
  {
    "id": "S01099",
    "name": "Canzo",
    "regionId": null,
    "lat": null,
    "lon": null,
    "lefrecceId": null
  },
  {
    "id": "S01970",
    "name": "Caorso",
    "regionId": "8",
    "lat": 45.042048,
    "lon": 9.868157,
    "lefrecceId": null
  },
  {
    "id": "S11702",
    "name": "Capaccio Roccadaspide",
    "regionId": "18",
    "lat": 40.454518,
    "lon": 15.013551,
    "lefrecceId": null
  },
  {
    "id": "S12128",
    "name": "Capaci",
    "regionId": "14",
    "lat": 38.171794,
    "lon": 13.232398,
    "lefrecceId": null
  },
  {
    "id": "S12145",
    "name": "Capaci",
    "regionId": null,
    "lat": null,
    "lon": null,
    "lefrecceId": null
  },
  {
    "id": "S08006",
    "name": "Capalbio",
    "regionId": "13",
    "lat": 42.407974,
    "lon": 11.370982,
    "lefrecceId": null
  },
  {
    "id": "S08672",
    "name": "Capannelle",
    "regionId": "5",
    "lat": 41.830713,
    "lon": 12.568884,
    "lefrecceId": null
  },
  {
    "id": "S13108",
    "name": "Capece",
    "regionId": null,
    "lat": null,
    "lon": null,
    "lefrecceId": null
  },
  {
    "id": "S08850",
    "name": "Capistrello",
    "regionId": "19",
    "lat": 41.97051,
    "lon": 13.399276,
    "lefrecceId": null
  },
  {
    "id": "S11734",
    "name": "Capo Bonifati",
    "regionId": "17",
    "lat": 39.558342,
    "lon": 15.874052,
    "lefrecceId": null
  },
  {
    "id": "S12030",
    "name": "Capo d'Orlando-Naso",
    "regionId": "14",
    "lat": 38.157941,
    "lon": 14.744844,
    "lefrecceId": null
  },
  {
    "id": "S01771",
    "name": "Capo di Ponte",
    "regionId": null,
    "lat": null,
    "lon": null,
    "lefrecceId": null
  },
  {
    "id": "S11858",
    "name": "Capo Spartivento",
    "regionId": "17",
    "lat": 37.924778,
    "lon": 16.058342,
    "lefrecceId": null
  },
  {
    "id": "S08804",
    "name": "Capocroce",
    "regionId": null,
    "lat": null,
    "lon": null,
    "lefrecceId": null
  },
  {
    "id": "S07215",
    "name": "Capodacqua Pieve Fanonica",
    "regionId": "6",
    "lat": 43.026769,
    "lon": 12.7541,
    "lefrecceId": null
  },
  {
    "id": "S06083",
    "name": "Capolona",
    "regionId": null,
    "lat": null,
    "lon": null,
    "lefrecceId": null
  },
  {
    "id": "S08525",
    "name": "Cappelle-Magliano",
    "regionId": "19",
    "lat": 42.059369,
    "lon": 13.372468,
    "lefrecceId": null
  },
  {
    "id": "S01603",
    "name": "Capralba",
    "regionId": "1",
    "lat": 45.443871,
    "lon": 9.640015,
    "lefrecceId": null
  },
  {
    "id": "S08311",
    "name": "Capranica",
    "regionId": "5",
    "lat": 42.245195,
    "lon": 12.157194,
    "lefrecceId": null
  },
  {
    "id": "S08110",
    "name": "Caprarola",
    "regionId": "5",
    "lat": 42.303815,
    "lon": 12.258238,
    "lefrecceId": null
  },
  {
    "id": "S09061",
    "name": "Capriati al Volturno",
    "regionId": "7",
    "lat": 41.44279,
    "lon": 14.070664,
    "lefrecceId": null
  },
  {
    "id": "S01622",
    "name": "Capriolo",
    "regionId": "1",
    "lat": 45.64556,
    "lon": 9.933806,
    "lefrecceId": null
  },
  {
    "id": "S03301",
    "name": "Capriva",
    "regionId": "10",
    "lat": 45.938764,
    "lon": 13.517494,
    "lefrecceId": null
  },
  {
    "id": "S09208",
    "name": "Capua",
    "regionId": "18",
    "lat": 41.101306,
    "lon": 14.210347,
    "lefrecceId": null
  },
  {
    "id": "S13118",
    "name": "Capurso",
    "regionId": null,
    "lat": null,
    "lon": null,
    "lefrecceId": null
  },
  {
    "id": "S01486",
    "name": "Carate-Calo'",
    "regionId": "1",
    "lat": 45.676451,
    "lon": 9.252304,
    "lefrecceId": null
  },
  {
    "id": "S01602",
    "name": "Caravaggio",
    "regionId": "1",
    "lat": 45.491158,
    "lon": 9.637723,
    "lefrecceId": 830001602
  },
  {
    "id": "S05120",
    "name": "Carbona",
    "regionId": "8",
    "lat": 44.246876,
    "lon": 11.09618,
    "lefrecceId": null
  },
  {
    "id": "S04300",
    "name": "Carbonara Scrivia",
    "regionId": "3",
    "lat": 44.860173,
    "lon": 8.853772,
    "lefrecceId": null
  },
  {
    "id": "S12818",
    "name": "Carbonia Serbariu",
    "regionId": "20",
    "lat": 39.169508,
    "lon": 8.509186,
    "lefrecceId": 830013703
  },
  {
    "id": "S12972",
    "name": "Carbonia Stato",
    "regionId": null,
    "lat": null,
    "lon": null,
    "lefrecceId": null
  },
  {
    "id": "S12140",
    "name": "Cardillo Zen",
    "regionId": "14",
    "lat": 38.17495,
    "lon": 13.296897,
    "lefrecceId": null
  },
  {
    "id": "S00839",
    "name": "Carentino",
    "regionId": "3",
    "lat": 44.831303,
    "lon": 8.470474,
    "lefrecceId": null
  },
  {
    "id": "S11818",
    "name": "Cariati",
    "regionId": "17",
    "lat": 39.496884,
    "lon": 16.952018,
    "lefrecceId": null
  },
  {
    "id": "S01315",
    "name": "Carimate",
    "regionId": "1",
    "lat": 45.697094,
    "lon": 9.107188,
    "lefrecceId": null
  },
  {
    "id": "S12127",
    "name": "Carini",
    "regionId": "14",
    "lat": 38.147696,
    "lon": 13.186624,
    "lefrecceId": null
  },
  {
    "id": "S12799",
    "name": "Carini Torre Ciachea",
    "regionId": "14",
    "lat": 38.16149,
    "lon": 13.219641,
    "lefrecceId": null
  },
  {
    "id": "S00055",
    "name": "Carisio",
    "regionId": "3",
    "lat": 45.403164,
    "lon": 8.21249,
    "lefrecceId": null
  },
  {
    "id": "S00601",
    "name": "Carmagnola",
    "regionId": "3",
    "lat": 44.846944,
    "lon": 7.72797,
    "lefrecceId": null
  },
  {
    "id": "S13147",
    "name": "Carmiano-magliano",
    "regionId": null,
    "lat": null,
    "lon": null,
    "lefrecceId": null
  },
  {
    "id": "S02532",
    "name": "Carmignano di Brenta",
    "regionId": "12",
    "lat": 45.621354,
    "lon": 11.714891,
    "lefrecceId": null
  },
  {
    "id": "S01511",
    "name": "Carnate Usmate",
    "regionId": "1",
    "lat": 45.653072,
    "lon": 9.375089,
    "lefrecceId": null
  },
  {
    "id": "S03016",
    "name": "Carnia",
    "regionId": "10",
    "lat": 46.373634,
    "lon": 13.132847,
    "lefrecceId": null
  },
  {
    "id": "S12025",
    "name": "Caronia",
    "regionId": "14",
    "lat": 38.034475,
    "lon": 14.443761,
    "lefrecceId": null
  },
  {
    "id": "S01076",
    "name": "Caronno Pertusella",
    "regionId": null,
    "lat": null,
    "lon": null,
    "lefrecceId": null
  },
  {
    "id": "S11133",
    "name": "Carovigno",
    "regionId": "16",
    "lat": 40.737337,
    "lon": 17.683791,
    "lefrecceId": null
  },
  {
    "id": "S08914",
    "name": "Carovilli-Roccasicura",
    "regionId": "7",
    "lat": 41.712485,
    "lon": 14.299732,
    "lefrecceId": null
  },
  {
    "id": "S02502",
    "name": "Carpane'Valstagna",
    "regionId": "12",
    "lat": 45.860128,
    "lon": 11.661183,
    "lefrecceId": null
  },
  {
    "id": "S02349",
    "name": "Carpi",
    "regionId": "8",
    "lat": 44.782919,
    "lon": 10.891952,
    "lefrecceId": null
  },
  {
    "id": "S00971",
    "name": "Carpignano Sesia",
    "regionId": "3",
    "lat": 45.528934,
    "lon": 8.422898,
    "lefrecceId": null
  },
  {
    "id": "S09050",
    "name": "Carpinone",
    "regionId": "7",
    "lat": 41.588038,
    "lon": 14.326783,
    "lefrecceId": null
  },
  {
    "id": "S06005",
    "name": "Carrara Avenza",
    "regionId": "13",
    "lat": 44.051239,
    "lon": 10.062927,
    "lefrecceId": null
  },
  {
    "id": "S08533",
    "name": "Carrito-Ortona",
    "regionId": "19",
    "lat": 42.026506,
    "lon": 13.720179,
    "lefrecceId": null
  },
  {
    "id": "S00738",
    "name": "Carru' Clavesana",
    "regionId": "3",
    "lat": 44.479548,
    "lon": 7.891414,
    "lefrecceId": null
  },
  {
    "id": "S12326",
    "name": "Carruba",
    "regionId": "14",
    "lat": 37.694344,
    "lon": 15.196143,
    "lefrecceId": null
  },
  {
    "id": "S08519",
    "name": "Carsoli",
    "regionId": "19",
    "lat": 42.09578,
    "lon": 13.080388,
    "lefrecceId": null
  },
  {
    "id": "S01091",
    "name": "Carugo - Giussano",
    "regionId": null,
    "lat": null,
    "lon": null,
    "lefrecceId": null
  },
  {
    "id": "S08730",
    "name": "Casabianca",
    "regionId": "5",
    "lat": 41.788327,
    "lon": 12.60431,
    "lefrecceId": null
  },
  {
    "id": "S09465",
    "name": "Casacalenda Guardialfiera",
    "regionId": "7",
    "lat": 41.738109,
    "lon": 14.849602,
    "lefrecceId": null
  },
  {
    "id": "S11309",
    "name": "Casal Sabini",
    "regionId": "16",
    "lat": 40.799021,
    "lon": 16.647908,
    "lefrecceId": null
  },
  {
    "id": "S07821",
    "name": "Casalbordino Pollutri",
    "regionId": "19",
    "lat": 42.193653,
    "lon": 14.633045,
    "lefrecceId": null
  },
  {
    "id": "S09910",
    "name": "Casalbuono",
    "regionId": "18",
    "lat": 40.214093,
    "lon": 15.686095,
    "lefrecceId": null
  },
  {
    "id": "S01609",
    "name": "Casalbuttano",
    "regionId": "1",
    "lat": 45.255398,
    "lon": 9.962361,
    "lefrecceId": null
  },
  {
    "id": "S00314",
    "name": "Casale Monferrato",
    "regionId": "3",
    "lat": 45.133928,
    "lon": 8.460292,
    "lefrecceId": null
  },
  {
    "id": "S00179",
    "name": "Casale Popolo",
    "regionId": "3",
    "lat": 45.160434,
    "lon": 8.44055,
    "lefrecceId": null
  },
  {
    "id": "S05101",
    "name": "Casalecchio di Reno",
    "regionId": "8",
    "lat": 44.474298,
    "lon": 11.276097,
    "lefrecceId": null
  },
  {
    "id": "S05111",
    "name": "Casalecchio Garibaldi",
    "regionId": "8",
    "lat": 44.482995,
    "lon": 11.272474,
    "lefrecceId": null
  },
  {
    "id": "S05968",
    "name": "Casalecchio Palasport",
    "regionId": null,
    "lat": null,
    "lon": null,
    "lefrecceId": null
  },
  {
    "id": "S00972",
    "name": "Casaleggio",
    "regionId": "3",
    "lat": 45.491298,
    "lon": 8.490369,
    "lefrecceId": null
  },
  {
    "id": "S09922",
    "name": "Casaletto",
    "regionId": null,
    "lat": null,
    "lon": null,
    "lefrecceId": null
  },
  {
    "id": "S01604",
    "name": "Casaletto Vaprio",
    "regionId": "1",
    "lat": 45.408641,
    "lon": 9.631746,
    "lefrecceId": null
  },
  {
    "id": "S05982",
    "name": "Casalgrande",
    "regionId": null,
    "lat": null,
    "lon": null,
    "lefrecceId": null
  },
  {
    "id": "S01850",
    "name": "Casalmaggiore",
    "regionId": "1",
    "lat": 44.993139,
    "lon": 10.425023,
    "lefrecceId": null
  },
  {
    "id": "S09216",
    "name": "Casalnuovo",
    "regionId": "18",
    "lat": 40.915559,
    "lon": 14.35296,
    "lefrecceId": null
  },
  {
    "id": "S01827",
    "name": "Casalpusterlengo",
    "regionId": "1",
    "lat": 45.182473,
    "lon": 9.653627,
    "lefrecceId": null
  },
  {
    "id": "S13099",
    "name": "Casamassima",
    "regionId": null,
    "lat": null,
    "lon": null,
    "lefrecceId": null
  },
  {
    "id": "S02059",
    "name": "Casanova Kaiserau",
    "regionId": null,
    "lat": null,
    "lon": null,
    "lefrecceId": null
  },
  {
    "id": "S13157",
    "name": "Casarano",
    "regionId": null,
    "lat": null,
    "lon": null,
    "lefrecceId": null
  },
  {
    "id": "S02830",
    "name": "Casarsa",
    "regionId": "10",
    "lat": 45.953002,
    "lon": 12.8406,
    "lefrecceId": null
  },
  {
    "id": "S06505",
    "name": "Cascina",
    "regionId": "13",
    "lat": 43.674542,
    "lon": 10.545225,
    "lefrecceId": null
  },
  {
    "id": "S00087",
    "name": "Caselle",
    "regionId": null,
    "lat": null,
    "lon": null,
    "lefrecceId": null
  },
  {
    "id": "S00088",
    "name": "Caselle Aeroporto",
    "regionId": null,
    "lat": null,
    "lon": null,
    "lefrecceId": null
  },
  {
    "id": "S02836",
    "name": "Casello 11",
    "regionId": null,
    "lat": null,
    "lon": null,
    "lefrecceId": null
  },
  {
    "id": "S02838",
    "name": "Casello 8",
    "regionId": null,
    "lat": null,
    "lon": null,
    "lefrecceId": null
  },
  {
    "id": "S07027",
    "name": "Casello Km 19",
    "regionId": null,
    "lat": null,
    "lon": null,
    "lefrecceId": null
  },
  {
    "id": "S09211",
    "name": "Caserta",
    "regionId": "18",
    "lat": 41.068655,
    "lon": 14.328457,
    "lefrecceId": null
  },
  {
    "id": "S05184",
    "name": "Casinalbo",
    "regionId": null,
    "lat": null,
    "lon": null,
    "lefrecceId": null
  },
  {
    "id": "S06751",
    "name": "Casino di Terra",
    "regionId": "13",
    "lat": 43.328581,
    "lon": 10.662975,
    "lefrecceId": null
  },
  {
    "id": "S01457",
    "name": "Casletto-Rogeno",
    "regionId": "1",
    "lat": 45.786028,
    "lon": 9.275375,
    "lefrecceId": null
  },
  {
    "id": "S01758",
    "name": "Caslino al Piano",
    "regionId": null,
    "lat": null,
    "lon": null,
    "lefrecceId": null
  },
  {
    "id": "S01098",
    "name": "Caslino d'Erba",
    "regionId": null,
    "lat": null,
    "lon": null,
    "lefrecceId": null
  },
  {
    "id": "S07991",
    "name": "Casoli",
    "regionId": null,
    "lat": null,
    "lon": null,
    "lefrecceId": null
  },
  {
    "id": "S01029",
    "name": "Casorate Sempione",
    "regionId": "1",
    "lat": 45.675075,
    "lon": 8.743954,
    "lefrecceId": null
  },
  {
    "id": "S09009",
    "name": "Casoria",
    "regionId": "18",
    "lat": 40.907762,
    "lon": 14.29874,
    "lefrecceId": null
  },
  {
    "id": "S01490",
    "name": "Cassago-Nibionno-Bulciago",
    "regionId": "1",
    "lat": 45.746243,
    "lon": 9.279834,
    "lefrecceId": null
  },
  {
    "id": "S11900",
    "name": "Cassano All'Ionio",
    "regionId": "17",
    "lat": 39.726326,
    "lon": 16.35218,
    "lefrecceId": null
  },
  {
    "id": "S01707",
    "name": "Cassano d'Adda",
    "regionId": "1",
    "lat": 45.514372,
    "lon": 9.512746,
    "lefrecceId": null
  },
  {
    "id": "S09611",
    "name": "Cassano Irpino",
    "regionId": "18",
    "lat": 40.869227,
    "lon": 15.031213,
    "lefrecceId": null
  },
  {
    "id": "S00864",
    "name": "Cassine",
    "regionId": "3",
    "lat": 44.751513,
    "lon": 8.533613,
    "lefrecceId": null
  },
  {
    "id": "S08671",
    "name": "Cassino",
    "regionId": "5",
    "lat": 41.484306,
    "lon": 13.832125,
    "lefrecceId": null
  },
  {
    "id": "S02506",
    "name": "Cassola",
    "regionId": "12",
    "lat": 45.732291,
    "lon": 11.795866,
    "lefrecceId": null
  },
  {
    "id": "S02368",
    "name": "Castagnaro",
    "regionId": "12",
    "lat": 45.119349,
    "lon": 11.403936,
    "lefrecceId": null
  },
  {
    "id": "S06029",
    "name": "Castagneto Carducci",
    "regionId": "13",
    "lat": 43.16816,
    "lon": 10.56399,
    "lefrecceId": null
  },
  {
    "id": "S05122",
    "name": "Castagno",
    "regionId": "13",
    "lat": 44.012359,
    "lon": 10.91538,
    "lefrecceId": null
  },
  {
    "id": "S00828",
    "name": "Castagnole delle Lanze",
    "regionId": "3",
    "lat": 44.749341,
    "lon": 8.152836,
    "lefrecceId": null
  },
  {
    "id": "S01752",
    "name": "Castano Primo",
    "regionId": null,
    "lat": null,
    "lon": null,
    "lefrecceId": null
  },
  {
    "id": "S01942",
    "name": "Casteggio",
    "regionId": "1",
    "lat": 45.017365,
    "lon": 9.124595,
    "lefrecceId": null
  },
  {
    "id": "S01795",
    "name": "Castegnato",
    "regionId": null,
    "lat": null,
    "lon": null,
    "lefrecceId": null
  },
  {
    "id": "S08114",
    "name": "Castel Bagnolo di Orte",
    "regionId": "5",
    "lat": 42.400183,
    "lon": 12.400781,
    "lefrecceId": null
  },
  {
    "id": "S02382",
    "name": "Castel d'Ario",
    "regionId": "1",
    "lat": 45.183399,
    "lon": 10.97531,
    "lefrecceId": null
  },
  {
    "id": "S08910",
    "name": "Castel di Sangro",
    "regionId": "19",
    "lat": 41.777829,
    "lon": 14.112049,
    "lefrecceId": null
  },
  {
    "id": "S07987",
    "name": "Castel Frentano",
    "regionId": null,
    "lat": null,
    "lon": null,
    "lefrecceId": null
  },
  {
    "id": "S08703",
    "name": "Castel Gandolfo",
    "regionId": "5",
    "lat": 41.746946,
    "lon": 12.652266,
    "lefrecceId": null
  },
  {
    "id": "S11212",
    "name": "Castel Lagopesole",
    "regionId": "15",
    "lat": 40.787682,
    "lon": 15.758093,
    "lefrecceId": null
  },
  {
    "id": "S08510",
    "name": "Castel Madama",
    "regionId": "5",
    "lat": 41.988389,
    "lon": 12.864938,
    "lefrecceId": null
  },
  {
    "id": "S07407",
    "name": "Castel S. Angelo",
    "regionId": "5",
    "lat": 42.379666,
    "lon": 13.017612,
    "lefrecceId": null
  },
  {
    "id": "S09704",
    "name": "Castel S. Giorgio Roccapiemonte",
    "regionId": "18",
    "lat": 40.758713,
    "lon": 14.692352,
    "lefrecceId": null
  },
  {
    "id": "S01948",
    "name": "Castel S. Giovanni",
    "regionId": "8",
    "lat": 45.063272,
    "lon": 9.436856,
    "lefrecceId": null
  },
  {
    "id": "S05053",
    "name": "Castel S. Pietro Terme",
    "regionId": "8",
    "lat": 44.407376,
    "lon": 11.597681,
    "lefrecceId": null
  },
  {
    "id": "S02208",
    "name": "Castelbello",
    "regionId": "9",
    "lat": 46.626994,
    "lon": 10.897884,
    "lefrecceId": null
  },
  {
    "id": "S05056",
    "name": "Castelbolognese",
    "regionId": "8",
    "lat": 44.325391,
    "lon": 11.804174,
    "lefrecceId": null
  },
  {
    "id": "S12020",
    "name": "Castelbuono",
    "regionId": "14",
    "lat": 38.014606,
    "lon": 14.108578,
    "lefrecceId": null
  },
  {
    "id": "S12010",
    "name": "Casteldaccia",
    "regionId": "14",
    "lat": 38.060474,
    "lon": 13.536867,
    "lefrecceId": null
  },
  {
    "id": "S02105",
    "name": "Casteldarne",
    "regionId": "9",
    "lat": 46.797708,
    "lon": 11.844223,
    "lefrecceId": null
  },
  {
    "id": "S05102",
    "name": "Casteldebole",
    "regionId": "8",
    "lat": 44.503974,
    "lon": 11.27456,
    "lefrecceId": null
  },
  {
    "id": "S07200",
    "name": "Castelferretti",
    "regionId": "11",
    "lat": 43.607303,
    "lon": 13.357519,
    "lefrecceId": null
  },
  {
    "id": "S06802",
    "name": "Castelfiorentino",
    "regionId": "13",
    "lat": 43.60542,
    "lon": 10.968048,
    "lefrecceId": null
  },
  {
    "id": "S09609",
    "name": "Castelfranci",
    "regionId": "18",
    "lat": 40.935968,
    "lon": 15.038655,
    "lefrecceId": null
  },
  {
    "id": "S05037",
    "name": "Castelfranco d'Emilia",
    "regionId": "8",
    "lat": 44.597381,
    "lon": 11.056408,
    "lefrecceId": null
  },
  {
    "id": "S09323",
    "name": "Castelfranco in Miscano",
    "regionId": null,
    "lat": null,
    "lon": null,
    "lefrecceId": null
  },
  {
    "id": "S02537",
    "name": "Castelfranco Veneto",
    "regionId": "12",
    "lat": 45.666439,
    "lon": 11.934315,
    "lefrecceId": null
  },
  {
    "id": "S05012",
    "name": "Castelguelfo",
    "regionId": "8",
    "lat": 44.836434,
    "lon": 10.176706,
    "lefrecceId": null
  },
  {
    "id": "S00343",
    "name": "Castell'Alfero",
    "regionId": "3",
    "lat": 44.986347,
    "lon": 8.220882,
    "lefrecceId": null
  },
  {
    "id": "S07901",
    "name": "Castellalto Canzano",
    "regionId": "19",
    "lat": 42.69564,
    "lon": 13.793043,
    "lefrecceId": null
  },
  {
    "id": "S12120",
    "name": "Castellammare del Golfo",
    "regionId": "14",
    "lat": 38.024309,
    "lon": 12.912209,
    "lefrecceId": null
  },
  {
    "id": "S09756",
    "name": "Castellammare di Stabia",
    "regionId": "18",
    "lat": 40.701398,
    "lon": 14.483737,
    "lefrecceId": null
  },
  {
    "id": "S13122",
    "name": "Castellana Grotte",
    "regionId": null,
    "lat": null,
    "lon": null,
    "lefrecceId": null
  },
  {
    "id": "S11507",
    "name": "Castellaneta",
    "regionId": null,
    "lat": null,
    "lon": null,
    "lefrecceId": null
  },
  {
    "id": "S11463",
    "name": "Castellaneta Marina",
    "regionId": "16",
    "lat": 40.481111,
    "lon": 16.965434,
    "lefrecceId": null
  },
  {
    "id": "S01136",
    "name": "Castellanza",
    "regionId": null,
    "lat": null,
    "lon": null,
    "lefrecceId": null
  },
  {
    "id": "S04000",
    "name": "Castellazzo Casalcermelli",
    "regionId": "3",
    "lat": 44.843839,
    "lon": 8.589645,
    "lefrecceId": null
  },
  {
    "id": "S01606",
    "name": "Castelleone",
    "regionId": "1",
    "lat": 45.301826,
    "lon": 9.76779,
    "lefrecceId": null
  },
  {
    "id": "S00720",
    "name": "Castelletto Busca",
    "regionId": "3",
    "lat": 44.501319,
    "lon": 7.463939,
    "lefrecceId": null
  },
  {
    "id": "S01123",
    "name": "Castelletto Ticino",
    "regionId": "3",
    "lat": 45.710757,
    "lon": 8.638259,
    "lefrecceId": null
  },
  {
    "id": "S06808",
    "name": "Castellina Ch",
    "regionId": "13",
    "lat": 43.408744,
    "lon": 11.212379,
    "lefrecceId": null
  },
  {
    "id": "S06024",
    "name": "Castellina Marittima",
    "regionId": "13",
    "lat": 43.406122,
    "lon": 10.495776,
    "lefrecceId": null
  },
  {
    "id": "S00741",
    "name": "Castellino Tanaro",
    "regionId": "3",
    "lat": 44.41657,
    "lon": 7.974321,
    "lefrecceId": null
  },
  {
    "id": "S00465",
    "name": "Castello d'Annone",
    "regionId": "3",
    "lat": 44.878742,
    "lon": 8.312724,
    "lefrecceId": null
  },
  {
    "id": "S02507",
    "name": "Castello di Godego",
    "regionId": "12",
    "lat": 45.688082,
    "lon": 11.87759,
    "lefrecceId": null
  },
  {
    "id": "S01923",
    "name": "Castellucchio",
    "regionId": "1",
    "lat": 45.144293,
    "lon": 10.64749,
    "lefrecceId": null
  },
  {
    "id": "S09920",
    "name": "Castelluccio",
    "regionId": null,
    "lat": null,
    "lon": null,
    "lefrecceId": null
  },
  {
    "id": "S05724",
    "name": "Castelmaggiore",
    "regionId": "8",
    "lat": 44.576055,
    "lon": 11.366901,
    "lefrecceId": null
  },
  {
    "id": "S02093",
    "name": "Castelnuovo",
    "regionId": "12",
    "lat": 45.430843,
    "lon": 10.758273,
    "lefrecceId": null
  },
  {
    "id": "S00836",
    "name": "Castelnuovo Belbo",
    "regionId": "3",
    "lat": 44.798127,
    "lon": 8.42516,
    "lefrecceId": null
  },
  {
    "id": "S06812",
    "name": "Castelnuovo Berardenga",
    "regionId": "13",
    "lat": 43.306882,
    "lon": 11.484912,
    "lefrecceId": null
  },
  {
    "id": "S06300",
    "name": "Castelnuovo di Garfagnana",
    "regionId": "13",
    "lat": 44.116351,
    "lon": 10.409054,
    "lefrecceId": null
  },
  {
    "id": "S07204",
    "name": "Castelplanio Cupramontana",
    "regionId": "11",
    "lat": 43.481403,
    "lon": 13.084733,
    "lefrecceId": null
  },
  {
    "id": "S07302",
    "name": "Castelraimondo Camerino",
    "regionId": "11",
    "lat": 43.210511,
    "lon": 13.057274,
    "lefrecceId": null
  },
  {
    "id": "S00233",
    "name": "Castelrosso",
    "regionId": "3",
    "lat": 45.201802,
    "lon": 7.932162,
    "lefrecceId": null
  },
  {
    "id": "S04001",
    "name": "Castelspina Portanova",
    "regionId": "3",
    "lat": 44.796662,
    "lon": 8.62203,
    "lefrecceId": null
  },