[
  {
    "id": "S05700",
    "name": "Abano Terme",
    "region": "12",
    "lat": 45.355199,
    "lon": 11.811533
  },
  {
    "id": "S01416",
    "name": "Abbadia Lariana",
    "region": "1",
    "lat": 45.895864,
    "lon": 9.335175,
    "lefrecceId": 830001416
  },
  {
    "id": "S12873",
    "name": "Abbasanta",
    "region": "20",
    "lat": 40.128801,
    "lon": 8.817733,
    "lefrecceId": 830012873
  },
  {
    "id": "N00018",
    "name": "Abbiate Guazzone",
    "region": null,
    "lat": null,
    "lon": null,
    "lefrecceId": 830025757
  },
  {
    "id": "S01062",
    "name": "Abbiategrasso",
    "region": "1",
    "lat": 45.400631,
    "lon": 8.921305,
    "lefrecceId": 830001062
  },
  {
    "id": "S12409",
    "name": "Acate",
    "region": "14",
    "lat": 36.996592,
    "lon": 14.42545,
    "lefrecceId": 830012409
  },
  {
    "id": "S07423",
    "name": "Acciano",
    "region": "19",
    "lat": 42.175994,
    "lon": 13.711345,
    "lefrecceId": 830007423
  },
  {
    "id": "S09215",
    "name": "Acerra",
    "region": "18",
    "lat": 40.939066,
    "lon": 14.372243,
    "lefrecceId": 830009215
  },
  {
    "id": "S12328",
    "name": "Acireale",
    "region": "14",
    "lat": 37.600514,
    "lon": 15.163697,
    "lefrecceId": 830012328
  },
  {
    "id": "S08715",
    "name": "Acqua Acetosa",
    "region": "5",
    "lat": 41.794294,
    "lon": 12.616449,
    "lefrecceId": 830008715
  },
  {
    "id": "S11722",
    "name": "Acquafredda",
    "region": "15",
    "lat": 40.035527,
    "lon": 15.671846,
    "lefrecceId": 830011722
  },
  {
    "id": "S09798",
    "name": "Acquamela",
    "region": null,
    "lat": null,
    "lon": null,
    "lefrecceId": 830009533
  },
  {
    "id": "S01913",
    "name": "Acquanegra Cremonese",
    "region": "1",
    "lat": 45.172102,
    "lon": 9.888456,
    "lefrecceId": 830001913
  },
  {
    "id": "S11736",
    "name": "Acquappesa",
    "region": "17",
    "lat": 39.48648,
    "lon": 15.955992,
    "lefrecceId": 830011736
  },
  {
    "id": "S12209",
    "name": "Acquaviva",
    "region": "14",
    "lat": 37.570258,
    "lon": 13.674927,
    "lefrecceId": 830011504
  },
  {
    "id": "S11504",
    "name": "Acquaviva delle Fonti",
    "region": "16",
    "lat": 40.892806,
    "lon": 16.839826,
    "lefrecceId": 830011504
  },
  {
    "id": "S12026",
    "name": "Acquedolci-S. Fratello",
    "region": "14",
    "lat": 38.058459,
    "lon": 14.587597
  },
  {
    "id": "S00867",
    "name": "Acqui Terme",
    "region": "3",
    "lat": 44.67407,
    "lon": 8.474482,
    "lefrecceId": 830000867
  },
  {
    "id": "S11907",
    "name": "Acri Bisignano Luzzi",
    "region": "17",
    "lat": 39.441389,
    "lon": 16.245177
  },
  {
    "id": "S05420",
    "name": "Adria",
    "region": "12",
    "lat": 45.06058,
    "lon": 12.054228,
    "lefrecceId": 830005420
  },
  {
    "id": "S11872",
    "name": "Africo Nuovo",
    "region": "17",
    "lat": 38.053759,
    "lon": 16.144283,
    "lefrecceId": 830011872
  },
  {
    "id": "S00804",
    "name": "Agliano Castelnuovo Calcea",
    "region": "3",
    "lat": 44.786108,
    "lon": 8.267723
  },
  {
    "id": "S12213",
    "name": "Agrigento Bassa",
    "region": "14",
    "lat": 37.319148,
    "lon": 13.588094,
    "lefrecceId": 830012213
  },
  {
    "id": "S12216",
    "name": "Agrigento Centrale",
    "region": "14",
    "lat": 37.309051,
    "lon": 13.584412,
    "lefrecceId": 830012216
  },
  {
    "id": "S11705",
    "name": "Agropoli Castellabate",
    "region": "18",
    "lat": 40.351521,
    "lon": 15.002053
  },
  {
    "id": "S08550",
    "name": "Aielli",
    "region": null,
    "lat": null,
    "lon": null,
    "lefrecceId": 830008529
  },
  {
    "id": "S00514",
    "name": "Airasca",
    "region": "3",
    "lat": 44.928093,
    "lon": 7.483536,
    "lefrecceId": 830000514
  },
  {
    "id": "S04481",
    "name": "Airole",
    "region": "2",
    "lat": 43.870494,
    "lon": 7.552757,
    "lefrecceId": 830004481
  },
  {
    "id": "S01515",
    "name": "Airuno",
    "region": "1",
    "lat": 45.754086,
    "lon": 9.422066,
    "lefrecceId": 830001515
  },
  {
    "id": "S02049",
    "name": "Ala",
    "region": "9",
    "lat": 45.760087,
    "lon": 10.996775,
    "lefrecceId": 830002049
  },
  {
    "id": "S07708",
    "name": "Alanno",
    "region": "19",
    "lat": 42.287185,
    "lon": 14.019595,
    "lefrecceId": 830007708
  },
  {
    "id": "S02566",
    "name": "Alano Fener Valdobbiadene",
    "region": "12",
    "lat": 45.90229,
    "lon": 11.944546
  },
  {
    "id": "S04515",
    "name": "Alassio",
    "region": "2",
    "lat": 44.007889,
    "lon": 8.17112,
    "lefrecceId": 830004515
  },
  {
    "id": "S00825",
    "name": "Alba",
    "region": "3",
    "lat": 44.697713,
    "lon": 8.030629,
    "lefrecceId": 830000825
  },
  {
    "id": "S07800",
    "name": "Alba Adriatica Nereto Contr.",
    "region": "19",
    "lat": 42.83438,
    "lon": 13.91733
  },
  {
    "id": "S07207",
    "name": "Albacina",
    "region": "11",
    "lat": 43.345686,
    "lon": 12.986501,
    "lefrecceId": 830007207
  },
  {
    "id": "S01059",
    "name": "Albairate Vermezzo",
    "region": null,
    "lat": null,
    "lon": null
  },
  {
    "id": "S11453",
    "name": "Albano di Lucania",
    "region": "15",
    "lat": 40.574707,
    "lon": 16.021247,
    "lefrecceId": 830011453
  },
  {
    "id": "S08704",
    "name": "Albano Laziale",
    "region": "5",
    "lat": 41.72632,
    "lon": 12.658056,
    "lefrecceId": 830008704
  },
  {
    "id": "S01534",
    "name": "Albano S. Alessandro",
    "region": "1",
    "lat": 45.682744,
    "lon": 9.768027,
    "lefrecceId": 830001534
  },
  {
    "id": "S09004",
    "name": "Albanova",
    "region": "18",
    "lat": 40.996117,
    "lon": 14.128596,
    "lefrecceId": 830009004
  },
  {
    "id": "S02538",
    "name": "Albaredo",
    "region": "12",
    "lat": 45.670265,
    "lon": 12.015104,
    "lefrecceId": 830002538
  },
  {
    "id": "S01310",
    "name": "Albate Camerlata",
    "region": "1",
    "lat": 45.777371,
    "lon": 9.073461
  },
  {
    "id": "S01450",
    "name": "Albate-Trecallo",
    "region": "1",
    "lat": 45.777391,
    "lon": 9.095752
  },
  {
    "id": "S04516",
    "name": "Albenga",
    "region": "2",
    "lat": 44.04722,
    "lon": 8.221663,
    "lefrecceId": 830004516
  },
  {
    "id": "S08001",
    "name": "Alberese",
    "region": "13",
    "lat": 42.634158,
    "lon": 11.1352,
    "lefrecceId": 830008001
  },
  {
    "id": "S06067",
    "name": "Albergo",
    "region": null,
    "lat": null,
    "lon": null,
    "lefrecceId": 830006067
  },
  {
    "id": "S08003",
    "name": "Albinia",
    "region": "13",
    "lat": 42.502165,
    "lon": 11.21134,
    "lefrecceId": 830008003
  },
  {
    "id": "S04529",
    "name": "Albisola",
    "region": "2",
    "lat": 44.33469,
    "lon": 8.512092,
    "lefrecceId": 830004529
  },
  {
    "id": "S01209",
    "name": "Albizzate Solbiate Arno",
    "region": "1",
    "lat": 45.724117,
    "lon": 8.80621
  },
  {
    "id": "S00033",
    "name": "Albonese",
    "region": "1",
    "lat": 45.297785,
    "lon": 8.714601,
    "lefrecceId": 830000033
  },
  {
    "id": "S01863",
    "name": "Albuzzano",
    "region": "1",
    "lat": 45.172504,
    "lon": 9.261624,
    "lefrecceId": 830001863
  },
  {
    "id": "S12150",
    "name": "Alcamo Diramazione",
    "region": "14",
    "lat": 37.978894,
    "lon": 12.915916,
    "lefrecceId": 830012150
  },
  {
    "id": "S12320",
    "name": "Alcantara",
    "region": "14",
    "lat": 37.82145,
    "lon": 15.251158,
    "lefrecceId": 830012320
  },
  {
    "id": "S00470",
    "name": "Alessandria",
    "region": "3",
    "lat": 44.909091,
    "lon": 8.606498,
    "lefrecceId": 830000470
  },
  {
    "id": "S08908",
    "name": "Alfedena-Scontrone",
    "region": "19",
    "lat": 41.738222,
    "lon": 14.044662,
    "lefrecceId": 830008908
  },
  {
    "id": "S05808",
    "name": "Alfonsine",
    "region": "8",
    "lat": 44.512364,
    "lon": 12.039155,
    "lefrecceId": 830005808
  },
  {
    "id": "S12310",
    "name": "Ali' Terme",
    "region": "14",
    "lat": 38.013952,
    "lon": 15.435184
  },
  {
    "id": "S00809",
    "name": "Alice Belcolle",
    "region": "3",
    "lat": 44.722636,
    "lon": 8.440076,
    "lefrecceId": 830000809
  },
  {
    "id": "S09020",
    "name": "Alife",
    "region": null,
    "lat": null,
    "lon": null,
    "lefrecceId": 830052007
  },
  {
    "id": "S08202",
    "name": "Allerona-Castel Viscardo",
    "region": "6",
    "lat": 42.78502,
    "lon": 12.035236,
    "lefrecceId": 830008202
  },
  {
    "id": "S00216",
    "name": "Alpignano",
    "region": "3",
    "lat": 45.091077,
    "lon": 7.523745,
    "lefrecceId": 830000216
  },
  {
    "id": "S11307",
    "name": "Altamura",
    "region": "16",
    "lat": 40.837666,
    "lon": 16.551739,
    "lefrecceId": 830011307
  },
  {
    "id": "S04810",
    "name": "Altare",
    "region": "2",
    "lat": 44.336169,
    "lon": 8.332753,
    "lefrecceId": 830004810
  },
  {
    "id": "S09511",
    "name": "Altavilla Irpina",
    "region": "18",
    "lat": 41.015265,
    "lon": 14.782833,
    "lefrecceId": 830009511
  },
  {
    "id": "S12011",
    "name": "Altavilla M.",
    "region": "14",
    "lat": 38.048392,
    "lon": 13.554421
  },
  {
    "id": "S02444",
    "name": "Altavilla Tavernelle",
    "region": "12",
    "lat": 45.511805,
    "lon": 11.454702
  },
  {
    "id": "S06407",
    "name": "Altopascio",
    "region": "13",
    "lat": 43.817418,
    "lon": 10.672754,
    "lefrecceId": 830006407
  },
  {
    "id": "S08206",
    "name": "Alviano",
    "region": "6",
    "lat": 42.591917,
    "lon": 12.259583,
    "lefrecceId": 830008206
  },
  {
    "id": "S09023",
    "name": "Alvignno",
    "region": null,
    "lat": null,
    "lon": null
  },
  {
    "id": "S11744",
    "name": "Amantea",
    "region": "17",
    "lat": 39.134353,
    "lon": 16.068448,
    "lefrecceId": 830011744
  },
  {
    "id": "S01527",
    "name": "Ambivere Mapello",
    "region": "1",
    "lat": 45.722163,
    "lon": 9.550444
  },
  {
    "id": "S11051",
    "name": "Amendola",
    "region": "16",
    "lat": 41.518025,
    "lon": 15.732569,
    "lefrecceId": 830013891
  },
  {
    "id": "S11807",
    "name": "Amendolara Oriolo",
    "region": "17",
    "lat": 39.933731,
    "lon": 16.60308
  },
  {
    "id": "S09306",
    "name": "Amorosi Melizzano",
    "region": "18",
    "lat": 41.173509,
    "lon": 14.470759
  },
  {
    "id": "S08658",
    "name": "Anagni-Fiuggi",
    "region": "5",
    "lat": 41.71037,
    "lon": 13.09597,
    "lefrecceId": 830008658
  },
  {
    "id": "S07113",
    "name": "Ancona",
    "": "Ancona",
    "region": "11",
    "lat": 43.607734,
    "lon": 13.497665,
    "lefrecceId": 830007120
  },
  {
    "id": "S07116",
    "name": "Ancona Marittima",
    "": "Ancona",
    "region": "11",
    "lat": 43.619445,
    "lon": 13.50911
  },
  {
    "id": "S07114",
    "name": "Ancona Stadio",
    "": "Ancona",
    "region": null,
    "lat": null,
    "lon": null,
    "lefrecceId": 830007114
  },
  {
    "id": "S07015",
    "name": "Ancona Torrette",
    "": "Ancona",
    "region": "11",
    "lat": 43.609936,
    "lon": 13.455777,
    "lefrecceId": 830007015
  },
  {
    "id": "S02141",
    "name": "Anconetta",
    "region": "12",
    "lat": 45.565249,
    "lon": 11.567865,
    "lefrecceId": 830002141
  },
  {
    "id": "S04513",
    "name": "Andora",
    "region": "2",
    "lat": 43.952003,
    "lon": 8.139319,
    "lefrecceId": 830004513
  },
  {
    "id": "S09031",
    "name": "Anfiteatro",
    "region": null,
    "lat": null,
    "lon": null,
    "lefrecceId": 830052006
  },
  {
    "id": "S09812",
    "name": "Angri",
    "region": "18",
    "lat": 40.746404,
    "lon": 14.575366,
    "lefrecceId": 830009812
  },
  {
    "id": "S08318",
    "name": "Anguillara",
    "region": "5",
    "lat": 42.068133,
    "lon": 12.304978,
    "lefrecceId": 830008318
  },
  {
    "id": "S11870",
    "name": "Anna'",
    "region": null,
    "lat": null,
    "lon": null,
    "lefrecceId": 830011870
  },
  {
    "id": "S02769",
    "name": "Annone Veneto",
    "region": "12",
    "lat": 45.774904,
    "lon": 12.680334,
    "lefrecceId": 830002769
  },
  {
    "id": "S06727",
    "name": "Antignano",
    "region": "13",
    "lat": 43.492482,
    "lon": 10.328827,
    "lefrecceId": 830006727
  },
  {
    "id": "S07408",
    "name": "Antrodoco Borgo Velino",
    "region": "5",
    "lat": 42.415393,
    "lon": 13.076193
  },
  {
    "id": "S07435",
    "name": "Antrodoco Centro",
    "region": "5",
    "lat": 42.409844,
    "lon": 13.07096,
    "lefrecceId": 830007435
  },
  {
    "id": "S08537",
    "name": "Anversa-Villalago-Scanno",
    "region": "19",
    "lat": 42.017261,
    "lon": 13.835618
  },
  {
    "id": "S01453",
    "name": "Anzano del Parco",
    "region": "1",
    "lat": 45.764965,
    "lon": 9.202676,
    "lefrecceId": 830001453
  },
  {
    "id": "S08709",
    "name": "Anzio",
    "region": "5",
    "lat": 41.4532,
    "lon": 12.633205,
    "lefrecceId": 830008709
  },
  {
    "id": "S08713",
    "name": "Anzio Colonia",
    "region": "5",
    "lat": 41.459893,
    "lon": 12.617442,
    "lefrecceId": 830008708
  },
  {
    "id": "S05386",
    "name": "Anzola",
    "region": null,
    "lat": null,
    "lon": null,
    "lefrecceId": 830005040
  },
  {
    "id": "S00137",
    "name": "Aosta",
    "": "Aosta",
    "region": "4",
    "lat": 45.73407,
    "lon": 7.322424,
    "lefrecceId": 830000137
  },
  {
    "id": "S00143",
    "name": "Aosta Istituto",
    "": "Aosta",
    "region": "4",
    "lat": 45.732938,
    "lon": 7.303076
  },
  {
    "id": "S00146",
    "name": "Aosta Viale Europa",
    "": "Aosta",
    "region": "4",
    "lat": 45.733294,
    "lon": 7.297371
  },
  {
    "id": "S09314",
    "name": "Apice S. Arcangelo Bonito",
    "region": "18",
    "lat": 41.140927,
    "lon": 14.918733
  },
  {
    "id": "S08328",
    "name": "Appiano",
    "region": "5",
    "lat": 41.909342,
    "lon": 12.43838,
    "lefrecceId": 830008334
  },
  {
    "id": "S11024",
    "name": "Apricena",
    "region": "16",
    "lat": 41.77664,
    "lon": 15.387809,
    "lefrecceId": 830011024
  },
  {
    "id": "S08705",
    "name": "Aprilia",
    "region": "5",
    "lat": 41.592386,
    "lon": 12.639126,
    "lefrecceId": 830008705
  },
  {
    "id": "S09623",
    "name": "Aquilonia",
    "region": "18",
    "lat": 40.940252,
    "lon": 15.541249
  },
  {
    "id": "S12370",
    "name": "Aragona Caldare",
    "region": "14",
    "lat": 37.381097,
    "lon": 13.636837
  },
  {
    "id": "S06811",
    "name": "Arbia",
    "region": "13",
    "lat": 43.294393,
    "lon": 11.406225,
    "lefrecceId": 830006811
  },
  {
    "id": "S08861",
    "name": "Arce",
    "region": "5",
    "lat": 41.583695,
    "lon": 13.571848,
    "lefrecceId": 830008861
  },
  {
    "id": "S07992",
    "name": "Archi",
    "region": null,
    "lat": null,
    "lon": null,
    "lefrecceId": 830051008
  },
  {
    "id": "S01203",
    "name": "Arcisate",
    "region": "1",
    "lat": 45.858579,
    "lon": 8.86241,
    "lefrecceId": 830001203
  },
  {
    "id": "S06006",
    "name": "Arcola",
    "region": "2",
    "lat": 44.118651,
    "lon": 9.914649,
    "lefrecceId": 830006006
  },
  {
    "id": "S01510",
    "name": "Arcore",
    "region": "1",
    "lat": 45.623493,
    "lon": 9.322798,
    "lefrecceId": 830001510
  },
  {
    "id": "S12817",
    "name": "Ardara",
    "region": "20",
    "lat": 40.632139,
    "lon": 8.818996
  },
  {
    "id": "S01427",
    "name": "Ardenno Masino",
    "region": "1",
    "lat": 46.16198,
    "lon": 9.651374
  },
  {
    "id": "S11853",
    "name": "Ardore",
    "region": "17",
    "lat": 38.175698,
    "lon": 16.207311,
    "lefrecceId": 830011853
  },
  {
    "id": "S01947",
    "name": "Arena Po",
    "region": "1",
    "lat": 45.082065,
    "lon": 9.360394,
    "lefrecceId": 830001947
  },
  {
    "id": "S04533",
    "name": "Arenzano",
    "region": "2",
    "lat": 44.403089,
    "lon": 8.678322,
    "lefrecceId": 830004533
  },
  {
    "id": "S06915",
    "name": "Arezzo",
    "": "Arezzo",
    "region": "13",
    "lat": 43.461725,
    "lon": 11.874189,
    "lefrecceId": 830006915
  },
  {
    "id": "S06086",
    "name": "Arezzo C. C.",
    "": "Arezzo",
    "region": null,
    "lat": null,
    "lon": null
  },
  {
    "id": "S06063",
    "name": "Arezzo Pescaiola",
    "": "Arezzo",
    "region": null,
    "lat": null,
    "lon": null,
    "lefrecceId": 830034002
  },
  {
    "id": "S05804",
    "name": "Argenta",
    "region": "8",
    "lat": 44.616867,
    "lon": 11.841267,
    "lefrecceId": 830005804
  },
  {
    "id": "S09316",
    "name": "Ariano Irpino",
    "region": "18",
    "lat": 41.181883,
    "lon": 15.117508,
    "lefrecceId": 830009316
  },
  {
    "id": "S01020",
    "name": "Arona",
    "region": "3",
    "lat": 45.755392,
    "lon": 8.559075,
    "lefrecceId": 830001020
  },
  {
    "id": "S01092",
    "name": "Arosio",
    "region": null,
    "lat": null,
    "lon": null,
    "lefrecceId": 830025034
  },
  {
    "id": "S09017",
    "name": "Arpaia-Airola-S. Agata dei Goti",
    "region": null,
    "lat": null,
    "lon": null
  },
  {
    "id": "S08859",
    "name": "Arpino",
    "region": "5",
    "lat": 41.648296,
    "lon": 13.59959,
    "lefrecceId": 830008859
  },
  {
    "id": "S05707",
    "name": "Arqua'",
    "region": "12",
    "lat": 45.006465,
    "lon": 11.748518,
    "lefrecceId": 830005707
  },
  {
    "id": "S04207",
    "name": "Arquata Scrivia",
    "region": "3",
    "lat": 44.692533,
    "lon": 8.885342,
    "lefrecceId": 830004207
  },
  {
    "id": "S08516",
    "name": "Arsoli",
    "region": "5",
    "lat": 42.045852,
    "lon": 13.013064,
    "lefrecceId": 830008516
  },
  {
    "id": "S03021",
    "name": "Artegna",
    "region": "10",
    "lat": 46.23115,
    "lon": 13.162328,
    "lefrecceId": 830003021
  },
  {
    "id": "N00219",
    "name": "Artogne - Gianico",
    "region": null,
    "lat": null,
    "lon": null,
    "lefrecceId": 830026001
  },
  {
    "id": "S00134",
    "name": "Arvier",
    "region": "4",
    "lat": 45.704259,
    "lon": 7.166681,
    "lefrecceId": 830000134
  },
  {
    "id": "S11711",
    "name": "Ascea",
    "region": "18",
    "lat": 40.140955,
    "lon": 15.172626,
    "lefrecceId": 830011711
  },
  {
    "id": "S06813",
    "name": "Asciano",
    "region": "13",
    "lat": 43.235245,
    "lon": 11.579237,
    "lefrecceId": 830006813
  },
  {
    "id": "S06825",
    "name": "Asciano Monte Oliveto Maggiore",
    "region": "13",
    "lat": 43.231706,
    "lon": 11.563621
  },
  {
    "id": "S07550",
    "name": "Ascoli Piceno",
    "region": "11",
    "lat": 42.855474,
    "lon": 13.587939,
    "lefrecceId": 830007550
  },
  {
    "id": "S11203",
    "name": "Ascoli Satriano",
    "region": "16",
    "lat": 41.219859,
    "lon": 15.547828,
    "lefrecceId": 830011203
  },
  {
    "id": "S01847",
    "name": "Asola",
    "region": "1",
    "lat": 45.220454,
    "lon": 10.402313,
    "lefrecceId": 830001847
  },
  {
    "id": "S12889",
    "name": "Assemini",
    "region": "20",
    "lat": 39.287603,
    "lon": 8.997936,
    "lefrecceId": 830012889
  },
  {
    "id": "S07008",
    "name": "Assisi",
    "region": "6",
    "lat": 43.058921,
    "lon": 12.585304,
    "lefrecceId": 830007008
  },
  {
    "id": "S01101",
    "name": "Asso",
    "region": "1",
    "lat": 45.855228,
    "lon": 9.268513,
    "lefrecceId": 830025046
  },
  {
    "id": "S00462",
    "name": "Asti",
    "region": "3",
    "lat": 44.89479,
    "lon": 8.208112,
    "lefrecceId": 830000462
  },
  {
    "id": "S07998",
    "name": "Ateleta",
    "region": null,
    "lat": null,
    "lon": null,
    "lefrecceId": 830051002
  },
  {
    "id": "S09904",
    "name": "Atena",
    "region": "18",
    "lat": 40.456676,
    "lon": 15.536094,
    "lefrecceId": 830009904
  },
  {
    "id": "S08207",
    "name": "Attigliano",
    "region": "6",
    "lat": 42.518054,
    "lon": 12.294761,
    "lefrecceId": 830008207
  },
  {
    "id": "S12345",
    "name": "Augusta",
    "region": "14",
    "lat": 37.24334,
    "lon": 15.218628,
    "lefrecceId": 830012345
  },
  {
    "id": "S09902",
    "name": "Auletta",
    "region": "18",
    "lat": 40.534934,
    "lon": 15.426706,
    "lefrecceId": 830014535
  },
  {
    "id": "S06168",
    "name": "Aulla",
    "region": "13",
    "lat": 44.209662,
    "lon": 9.970632,
    "lefrecceId": 830006013
  },
  {
    "id": "S06013",
    "name": "Aulla Lunigiana",
    "region": "13",
    "lat": 44.210555,
    "lon": 9.970015,
    "lefrecceId": 830006013
  },
  {
    "id": "S03550",
    "name": "Aurisina",
    "region": "10",
    "lat": 45.753943,
    "lon": 13.687706,
    "lefrecceId": 830003550
  },
  {
    "id": "S09514",
    "name": "Avellino",
    "region": "18",
    "lat": 40.921612,
    "lon": 14.820586,
    "lefrecceId": 830009514
  },
  {
    "id": "S09006",
    "name": "Aversa",
    "region": "18",
    "lat": 40.973323,
    "lon": 14.218578,
    "lefrecceId": 830009006
  },
  {
    "id": "S08526",
    "name": "Avezzano",
    "region": "19",
    "lat": 42.039495,
    "lon": 13.426446,
    "lefrecceId": 830008526
  },
  {
    "id": "S03087",
    "name": "Aviano",
    "region": "10",
    "lat": 46.064362,
    "lon": 12.590686,
    "lefrecceId": 830003087
  },
  {
    "id": "S00214",
    "name": "Avigliana",
    "region": "3",
    "lat": 45.085276,
    "lon": 7.401096,
    "lefrecceId": 830000214
  },
  {
    "id": "S11214",
    "name": "Avigliano Lucania",
    "region": "15",
    "lat": 40.714667,
    "lon": 15.785619,
    "lefrecceId": 830011214
  },
  {
    "id": "S02050",
    "name": "Avio",
    "region": "9",
    "lat": 45.733892,
    "lon": 10.955842,
    "lefrecceId": 830002050
  },
  {
    "id": "S00133",
    "name": "Avise",
    "region": "4",
    "lat": 45.706296,
    "lon": 7.131285,
    "lefrecceId": 830000133
  },
  {
    "id": "S12426",
    "name": "Avola",
    "region": "14",
    "lat": 36.907434,
    "lon": 15.125733,
    "lefrecceId": 830012426
  },
  {
    "id": "S11499",
    "name": "Ba Policlinico",
    "region": null,
    "lat": null,
    "lon": null
  },
  {
    "id": "S06081",
    "name": "Baciano",
    "region": null,
    "lat": null,
    "lon": null,
    "lefrecceId": 830006081
  },
  {
    "id": "S03118",
    "name": "Baden",
    "region": null,
    "lat": null,
    "lon": null,
    "lefrecceId": 810003118
  },
  {
    "id": "S02370",
    "name": "Badia Polesine",
    "region": "12",
    "lat": 45.094439,
    "lon": 11.484722,
    "lefrecceId": 830002370
  },
  {
    "id": "S11841",
    "name": "Badolato",
    "region": "17",
    "lat": 38.572268,
    "lon": 16.567646,
    "lefrecceId": 830011841
  },
  {
    "id": "S12008",
    "name": "Bagheria",
    "region": "14",
    "lat": 38.089905,
    "lon": 13.507215,
    "lefrecceId": 830012008
  },
  {
    "id": "S05902",
    "name": "Bagnacavallo",
    "region": "8",
    "lat": 44.412138,
    "lon": 11.969398,
    "lefrecceId": 830005902
  },
  {
    "id": "S11770",
    "name": "Bagnara",
    "region": "17",
    "lat": 38.282695,
    "lon": 15.800327,
    "lefrecceId": 830011770
  },
  {
    "id": "S03123",
    "name": "Bagnaria Arsa",
    "region": "10",
    "lat": 45.885513,
    "lon": 13.282026,
    "lefrecceId": 830003123
  },
  {
    "id": "S00921",
    "name": "Bagnasco",
    "region": "3",
    "lat": 44.303264,
    "lon": 8.046132,
    "lefrecceId": 830000921
  },
  {
    "id": "S06308",
    "name": "Bagni di Lucca",
    "region": "13",
    "lat": 44.003447,
    "lon": 10.551631,
    "lefrecceId": 830006308
  },
  {
    "id": "S08504",
    "name": "Bagni di Tivoli",
    "region": "5",
    "lat": 41.949593,
    "lon": 12.722208,
    "lefrecceId": 830008504
  },
  {
    "id": "S09102",
    "name": "Bagnoli Agnano Terme",
    "region": "18",
    "lat": 40.819444,
    "lon": 14.166694
  },
  {
    "id": "S09613",
    "name": "Bagnoli Irpino",
    "region": "18",
    "lat": 40.83917,
    "lon": 15.06324,
    "lefrecceId": 830009613
  },
  {
    "id": "S01901",
    "name": "Bagnolo Mella",
    "region": "1",
    "lat": 45.428532,
    "lon": 10.183617,
    "lefrecceId": 830001901
  },
  {
    "id": "S07224",
    "name": "Baiano di Spoleto",
    "region": "6",
    "lat": 42.726238,
    "lon": 12.663615,
    "lefrecceId": 830007224
  },
  {
    "id": "S00094",
    "name": "Balangero",
    "region": null,
    "lat": null,
    "lon": null,
    "lefrecceId": 830000094
  },
  {
    "id": "S03418",
    "name": "Balatonfoeldvar",
    "region": null,
    "lat": null,
    "lon": null,
    "lefrecceId": 550003418
  },
  {
    "id": "S03459",
    "name": "Balatonlelle",
    "region": null,
    "lat": null,
    "lon": null,
    "lefrecceId": 550003459
  },
  {
    "id": "S03566",
    "name": "Balatonszentgyorgy",
    "region": null,
    "lat": null,
    "lon": null
  },
  {
    "id": "S00460",
    "name": "Baldichieri",
    "region": "3",
    "lat": 44.899204,
    "lon": 8.091198,
    "lefrecceId": 830000460
  },
  {
    "id": "S12122",
    "name": "Balestrate",
    "region": "14",
    "lat": 38.053364,
    "lon": 13.007374,
    "lefrecceId": 830012122
  },
  {
    "id": "S08856",
    "name": "Balsorano",
    "region": "19",
    "lat": 41.809427,
    "lon": 13.556546,
    "lefrecceId": 830008856
  },
  {
    "id": "S09830",
    "name": "Balvano R.",
    "region": "15",
    "lat": 40.649993,
    "lon": 15.495304
  },
  {
    "id": "S00178",
    "name": "Balzola",
    "region": "3",
    "lat": 45.173985,
    "lon": 8.402174,
    "lefrecceId": 830000178
  },
  {
    "id": "S00732",
    "name": "Bandito",
    "region": "3",
    "lat": 44.722075,
    "lon": 7.819452,
    "lefrecceId": 830000732
  },
  {
    "id": "S09832",
    "name": "Baragiano",
    "region": "15",
    "lat": 40.695213,
    "lon": 15.569206,
    "lefrecceId": 830009832
  },
  {
    "id": "S09458",
    "name": "Baranello",
    "region": "7",
    "lat": 41.5176,
    "lon": 14.596314,
    "lefrecceId": 830009458
  },
  {
    "id": "N00027",
    "name": "Barasso - Comerio",
    "region": null,
    "lat": null,
    "lon": null
  },
  {
    "id": "S06806",
    "name": "Barberino Val d'Elsa",
    "region": null,
    "lat": null,
    "lon": null
  },
  {
    "id": "S01932",
    "name": "Barbianello",
    "region": "1",
    "lat": 45.07263,
    "lon": 9.204165,
    "lefrecceId": 830001932
  },
  {
    "id": "S05905",
    "name": "Barbiano",
    "region": "8",
    "lat": 44.387263,
    "lon": 11.878086,
    "lefrecceId": 830005905
  },
  {
    "id": "S12971",
    "name": "Barbusi",
    "region": "20",
    "lat": 39.203024,
    "lon": 8.501702
  },
  {
    "id": "S12041",
    "name": "Barcellona",
    "region": "14",
    "lat": 38.14918,
    "lon": 15.212499,
    "lefrecceId": 830014967
  },
  {
    "id": "S00202",
    "name": "Bardonecchia",
    "region": "3",
    "lat": 45.076447,
    "lon": 6.709959,
    "lefrecceId": 830000202
  },
  {
    "id": "S06303",
    "name": "Barga Gallicano",
    "region": "13",
    "lat": 44.068114,
    "lon": 10.451938
  },
  {
    "id": "S11119",
    "name": "Bari Centrale",
    "": "Bari",
    "region": "16",
    "lat": 41.11774,
    "lon": 16.869601,
    "lefrecceId": 830011119
  },
  {
    "id": "S11118",
    "name": "Bari Palese Macchie",
    "": "Bari",
    "region": "16",
    "lat": 41.151583,
    "lon": 16.766902
  },
  {
    "id": "S11148",
    "name": "Bari Parco Nord",
    "": "Bari",
    "region": "16",
    "lat": 41.123916,
    "lon": 16.837018,
    "lefrecceId": 830011148
  },
  {
    "id": "S11149",
    "name": "Bari Parco Nord Fascio Taranto",
    "": "Bari",
    "region": null,
    "lat": null,
    "lon": null
  },
  {
    "id": "S11125",
    "name": "Bari Parco Sud",
    "": "Bari",
    "region": "16",
    "lat": 41.111822,
    "lon": 16.914736,
    "lefrecceId": 830011125
  },
  {
    "id": "S11513",
    "name": "Bari S. Andrea",
    "": "Bari",
    "region": "16",
    "lat": 41.105467,
    "lon": 16.830255
  },
  {
    "id": "S11150",
    "name": "Bari S. Giorgio",
    "": "Bari",
    "region": "16",
    "lat": 41.093779,
    "lon": 16.950084
  },
  {
    "id": "S11116",
    "name": "Bari S. Spirito",
    "": "Bari",
    "region": "16",
    "lat": 41.159653,
    "lon": 16.746324,
    "lefrecceId": 830011116
  },
  {
    "id": "S11126",
    "name": "Bari Torre a Mare",
    "": "Bari",
    "region": "16",
    "lat": 41.082637,
    "lon": 16.995772,
    "lefrecceId": 830011126
  },
  {
    "id": "S05419",
    "name": "Baricetta",
    "region": "12",
    "lat": 45.060889,
    "lon": 11.995348,
    "lefrecceId": 830005419
  },
  {
    "id": "S11208",
    "name": "Barile",
    "region": "15",
    "lat": 40.943044,
    "lon": 15.670959,
    "lefrecceId": 830011208
  },
  {
    "id": "S01926",
    "name": "Barlassina",
    "region": null,
    "lat": null,
    "lon": null
  },
  {
    "id": "S11108",
    "name": "Barletta",
    "region": "16",
    "lat": 41.315227,
    "lon": 16.278867,
    "lefrecceId": 830011108
  },
  {
    "id": "S09520",
    "name": "Baronissi",
    "region": "18",
    "lat": 40.743779,
    "lon": 14.77224,
    "lefrecceId": 830009520
  },
  {
    "id": "S01929",
    "name": "Barruccana",
    "region": null,
    "lat": null,
    "lon": null
  },
  {
    "id": "S08204",
    "name": "Baschi-Montecchio",
    "region": "6",
    "lat": 42.68685,
    "lon": 12.203496
  },
  {
    "id": "S02832",
    "name": "Basiliano",
    "region": "10",
    "lat": 46.012737,
    "lon": 13.109233,
    "lefrecceId": 830002832
  },
  {
    "id": "S02520",
    "name": "Bassano del Grappa",
    "region": "12",
    "lat": 45.766697,
    "lon": 11.741525,
    "lefrecceId": 830002520
  },
  {
    "id": "S08208",
    "name": "Bassano in Teverina",
    "region": "6",
    "lat": 42.483551,
    "lon": 12.333556
  },
  {
    "id": "S08312",
    "name": "Bassano Romano",
    "region": "5",
    "lat": 42.212444,
    "lon": 12.152302
  },
  {
    "id": "S07007",
    "name": "Bastia",
    "region": "6",
    "lat": 43.07133,
    "lon": 12.547735,
    "lefrecceId": 830007007
  },
  {
    "id": "S00908",
    "name": "Bastia Mondovi'",
    "region": "3",
    "lat": 44.439398,
    "lon": 7.891671
  },
  {
    "id": "S05702",
    "name": "Battaglia Terme",
    "region": "12",
    "lat": 45.291475,
    "lon": 11.77838,
    "lefrecceId": 830005702
  },
  {
    "id": "S09823",
    "name": "Battipaglia",
    "region": "18",
    "lat": 40.605789,
    "lon": 14.98324,
    "lefrecceId": 830009823
  },
  {
    "id": "S12875",
    "name": "Bauladu Milis",
    "region": "20",
    "lat": 40.020722,
    "lon": 8.687123
  },
  {
    "id": "S01015",
    "name": "Baveno",
    "region": "3",
    "lat": 45.909105,
    "lon": 8.502121,
    "lefrecceId": 830001015
  },
  {
    "id": "S00807",
    "name": "Bazzana",
    "region": "3",
    "lat": 44.777094,
    "lon": 8.401557,
    "lefrecceId": 830000807
  },
  {
    "id": "S00203",
    "name": "Beaulard",
    "region": "3",
    "lat": 45.046495,
    "lon": 6.759713,
    "lefrecceId": 830000203
  },
  {
    "id": "S07422",
    "name": "Beffi",
    "region": "19",
    "lat": 42.197341,
    "lon": 13.660759,
    "lefrecceId": 830007422
  },
  {
    "id": "S00901",
    "name": "Beinette",
    "region": "3",
    "lat": 44.36782,
    "lon": 7.644884,
    "lefrecceId": 830000901
  },
  {
    "id": "S01864",
    "name": "Belgioioso",
    "region": "1",
    "lat": 45.16456,
    "lon": 9.316875,
    "lefrecceId": 830001864
  },
  {
    "id": "S01017",
    "name": "Belgirate",
    "region": "3",
    "lat": 45.843337,
    "lon": 8.570821,
    "lefrecceId": 830001017
  },
  {
    "id": "S09831",
    "name": "Bella Muro",
    "region": "15",
    "lat": 40.700914,
    "lon": 15.542936
  },
  {
    "id": "S01409",
    "name": "Bellano Tartavelle Terme",
    "region": "1",
    "lat": 46.039448,
    "lon": 9.302776
  },
  {
    "id": "S07902",
    "name": "Bellante Ripattone",
    "region": "19",
    "lat": 42.705775,
    "lon": 13.837978
  },
  {
    "id": "S05817",
    "name": "Bellaria",
    "region": "8",
    "lat": 44.150249,
    "lon": 12.461168,
    "lefrecceId": 830005817
  },
  {
    "id": "S11512",
    "name": "Bellavista",
    "region": "16",
    "lat": 40.517077,
    "lon": 17.176892
  },
  {
    "id": "S00985",
    "name": "Bellinzago",
    "region": "3",
    "lat": 45.566681,
    "lon": 8.627652,
    "lefrecceId": 830000985
  },
  {
    "id": "S00300",
    "name": "Bellinzona",
    "region": null,
    "lat": null,
    "lon": null
  },
  {
    "id": "S07061",
    "name": "Bellisio Solfare",
    "region": "11",
    "lat": 43.520379,
    "lon": 12.823977
  },
  {
    "id": "S02559",
    "name": "Belluno",
    "region": "12",
    "lat": 46.141594,
    "lon": 12.209703
  },
  {
    "id": "S11743",
    "name": "Belmonte Calabro",
    "region": "17",
    "lat": 39.164427,
    "lon": 16.064515
  },
  {
    "id": "S11732",
    "name": "Belvedere Marittimo",
    "region": "17",
    "lat": 39.616549,
    "lon": 15.853039
  },
  {
    "id": "S09311",
    "name": "Benevento",
    "region": "18",
    "lat": 41.141901,
    "lon": 14.769998
  },
  {
    "id": "S09472",
    "name": "Benevento Acquafredda",
    "region": null,
    "lat": null,
    "lon": null
  },
  {
    "id": "S09011",
    "name": "Benevento Appia",
    "region": null,
    "lat": null,
    "lon": null
  },
  {
    "id": "S09530",
    "name": "Benevento Arco Traiano",
    "region": "18",
    "lat": 41.136834,
    "lon": 14.777662
  },
  {
    "id": "S09509",
    "name": "Benevento Porta Rufina",
    "region": "18",
    "lat": 41.123564,
    "lon": 14.784315
  },
  {
    "id": "S09012",
    "name": "Benevento Rione Liberta'",
    "region": null,
    "lat": null,
    "lon": null
  },
  {
    "id": "S06158",
    "name": "Berceto",
    "region": "8",
    "lat": 44.555912,
    "lon": 9.931759
  },
  {
    "id": "S12859",
    "name": "Berchidda",
    "region": "20",
    "lat": 40.772052,
    "lon": 9.181312
  },
  {
    "id": "S00838",
    "name": "Bergamasco",
    "region": "3",
    "lat": 44.819891,
    "lon": 8.461447
  },
  {
    "id": "S01529",
    "name": "Bergamo",
    "": "Bergamo",
    "region": "1",
    "lat": 45.690271,
    "lon": 9.675082
  },
  {
    "id": "S11460",
    "name": "Bernalda",
    "region": "15",
    "lat": 40.397616,
    "lon": 16.682281
  },
  {
    "id": "S01488",
    "name": "Besana",
    "region": "1",
    "lat": 45.702824,
    "lon": 9.28288
  },
  {
    "id": "S01145",
    "name": "Besnate",
    "region": "1",
    "lat": 45.695409,
    "lon": 8.761072
  },
  {
    "id": "S01141",
    "name": "Besozzo",
    "region": "1",
    "lat": 45.842188,
    "lon": 8.662997
  },
  {
    "id": "S01007",
    "name": "Beura Cardezza",
    "region": "3",
    "lat": 46.068341,
    "lon": 8.289627
  },
  {
    "id": "S04482",
    "name": "Bevera",
    "region": "2",
    "lat": 43.825303,
    "lon": 7.579157
  },
  {
    "id": "S02391",
    "name": "Bevilacqua",
    "region": "12",
    "lat": 45.230145,
    "lon": 11.398643
  },
  {
    "id": "S05119",
    "name": "Biagioni Lagacci",
    "region": "8",
    "lat": 44.086359,
    "lon": 10.948257
  },
  {
    "id": "S11855",
    "name": "Bianco",
    "region": "17",
    "lat": 38.089072,
    "lon": 16.153348
  },
  {
    "id": "S00238",
    "name": "Bianze'",
    "region": "3",
    "lat": 45.309488,
    "lon": 8.115523
  },
  {
    "id": "S01438",
    "name": "Bianzone",
    "region": "1",
    "lat": 46.179383,
    "lon": 10.112507
  },
  {
    "id": "S01483",
    "name": "Biassono-Lesmo Parco",
    "region": "1",
    "lat": 45.632209,
    "lon": 9.298408
  },
  {
    "id": "S06076",
    "name": "Bibbiena",
    "region": null,
    "lat": null,
    "lon": null
  },
  {
    "id": "S06077",
    "name": "Bibbiena Corsalone",
    "region": null,
    "lat": null,
    "lon": null
  },
  {
    "id": "S00522",
    "name": "Bibiana",
    "region": "3",
    "lat": 44.809941,
    "lon": 7.285727
  },
  {
    "id": "S12338",
    "name": "Bicocca",
    "region": "14",
    "lat": 37.460617,
    "lon": 15.044594
  },
  {
    "id": "S00970",
    "name": "Biella Chiavazza",
    "region": "3",
    "lat": 45.568084,
    "lon": 8.066787
  },
  {
    "id": "S00070",
    "name": "Biella S. Paolo",
    "region": "3",
    "lat": 45.557334,
    "lon": 8.067541
  },
  {
    "id": "S06611",
    "name": "Biforco",
    "region": "13",
    "lat": 44.068431,
    "lon": 11.602243
  },
  {
    "id": "S11113",
    "name": "Bisceglie",
    "region": "16",
    "lat": 41.235445,
    "lon": 16.499484
  },
  {
    "id": "S00870",
    "name": "Bistagno",
    "region": "3",
    "lat": 44.659256,
    "lon": 8.372057
  },
  {
    "id": "S01202",
    "name": "Bisuschio Viggiu",
    "region": "1",
    "lat": 45.870658,
    "lon": 8.887544
  },
  {
    "id": "S11501",
    "name": "Bitetto Palo del Colle",
    "region": "16",
    "lat": 41.041481,
    "lon": 16.74053
  },
  {
    "id": "S05048",
    "name": "Biv.venezia",
    "region": null,
    "lat": null,
    "lon": null
  },
  {
    "id": "S03313",
    "name": "Bivio d'Aurisina",
    "region": "10",
    "lat": 45.754253,
    "lon": 13.655777
  },
  {
    "id": "N00221",
    "name": "Boario Terme",
    "region": null,
    "lat": null,
    "lon": null
  },
  {
    "id": "S09763",
    "name": "Boccia al Mauro",
    "region": "18",
    "lat": 40.732794,
    "lon": 14.471878
  },
  {
    "id": "S04709",
    "name": "Bogliasco",
    "region": "2",
    "lat": 44.379207,
    "lon": 9.066042
  },
  {
    "id": "S09453",
    "name": "Boiano",
    "region": "7",
    "lat": 41.487883,
    "lon": 14.474551
  },
  {
    "id": "S06028",
    "name": "Bolgheri",
    "region": "13",
    "lat": 43.244664,
    "lon": 10.550548
  },
  {
    "id": "S01071",
    "name": "Bollate Centro",
    "region": null,
    "lat": null,
    "lon": null
  },
  {
    "id": "S01072",
    "name": "Bollate Nord",
    "region": null,
    "lat": null,
    "lon": null
  },
  {
    "id": "S05100",
    "name": "Bologna Borgo Panigale",
    "": "Bologna",
    "region": "8",
    "lat": 44.515024,
    "lon": 11.284728,
    "lefrecceId": 830005100
  },
  {
    "id": "S05043",
    "name": "Bologna C. Le",
    "": "Bologna",
    "region": "8",
    "lat": 44.50626,
    "lon": 11.342267
  },
  {
    "id": "S05046",
    "name": "Bologna C. Le/AV",
    "": "Bologna",
    "region": "8",
    "lat": 44.50626,
    "lon": 11.342267
  },
  {
    "id": "S05725",
    "name": "Bologna Corticella",
    "": "Bologna",
    "region": "8",
    "lat": 44.551985,
    "lon": 11.35401,
    "lefrecceId": 830005725
  },
  {
    "id": "S05020",
    "name": "Bologna Fiere",
    "": "Bologna",
    "region": "8",
    "lat": 44.512742,
    "lon": 11.368809
  },
  {
    "id": "S05140",
    "name": "Bologna Mazzini",
    "": "Bologna",
    "region": "8",
    "lat": 44.482284,
    "lon": 11.376271,
    "lefrecceId": 830005140
  },
  {
    "id": "S05042",
    "name": "Bologna Ravone",
    "": "Bologna",
    "region": "8",
    "lat": 44.510244,
    "lon": 11.320029
  },
  {
    "id": "S05130",
    "name": "Bologna S. Ruffillo",
    "": "Bologna",
    "region": "8",
    "lat": 44.462657,
    "lon": 11.372967,
    "lefrecceId": 830005130
  },
  {
    "id": "S05081",
    "name": "Bologna San Vitale",
    "": "Bologna",
    "region": null,
    "lat": null,
    "lon": null,
    "lefrecceId": 830005081
  },
  {
    "id": "S02026",
    "name": "Bolzano",
    "": "Bolzano",
    "region": "22",
    "lat": 46.496346,
    "lon": 11.358556
  },
  {
    "id": "S00014",
    "name": "Bolzano Novarese",
    "": "Bolzano",
    "region": "3",
    "lat": 45.759357,
    "lon": 8.440754
  },
  {
    "id": "S02226",
    "name": "Bolzano Sud",
    "": "Bolzano",
    "region": "9",
    "lat": 46.472617,
    "lon": 11.33334
  },
  {
    "id": "S07993",
    "name": "Bomba Torricella",
    "region": null,
    "lat": null,
    "lon": null
  },
  {
    "id": "S04730",
    "name": "Bonassola",
    "region": "2",
    "lat": 44.184867,
    "lon": 9.582673
  },
  {
    "id": "S05165",
    "name": "Bondeno",
    "region": null,
    "lat": null,
    "lon": null
  },
  {
    "id": "S09464",
    "name": "Bonefro S. Croce",
    "region": "7",
    "lat": 41.710522,
    "lon": 14.860799
  },
  {
    "id": "S02383",
    "name": "Bonferraro",
    "region": "12",
    "lat": 45.185651,
    "lon": 11.009247
  },
  {
    "id": "S12867",
    "name": "Bonorva",
    "region": "20",
    "lat": 40.417763,
    "lon": 8.760707
  },
  {
    "id": "S04503",
    "name": "Bordighera",
    "region": "2",
    "lat": 43.778313,
    "lon": 7.663504
  },
  {
    "id": "S00086",
    "name": "Borgaro",
    "region": null,
    "lat": null,
    "lon": null
  },
  {
    "id": "S02051",
    "name": "Borghetto",
    "region": "9",
    "lat": 45.696721,
    "lon": 10.927083
  },
  {
    "id": "S06100",
    "name": "Borghetto Parmense",
    "region": "8",
    "lat": 44.837198,
    "lon": 10.1177
  },
  {
    "id": "S04518",
    "name": "Borghetto Santo Spirito",
    "region": "2",
    "lat": 44.109006,
    "lon": 8.242346
  },
  {
    "id": "S04521",
    "name": "Borgio Verezzi",
    "region": "2",
    "lat": 44.157722,
    "lon": 8.30908
  },
  {
    "id": "S09526",
    "name": "Borgo",
    "region": "18",
    "lat": 40.845976,
    "lon": 14.784092
  },
  {
    "id": "S06410",
    "name": "Borgo a Buggiano",
    "region": "13",
    "lat": 43.880724,
    "lon": 10.730079
  },
  {
    "id": "S06309",
    "name": "Borgo a Mozzano",
    "region": "13",
    "lat": 43.977207,
    "lon": 10.541285
  },
  {
    "id": "S04214",
    "name": "Borgo Fornari per Voltaggio",
    "region": "2",
    "lat": 44.588379,
    "lon": 8.938295
  },
  {
    "id": "S00032",
    "name": "Borgo Lavezzaro",
    "region": "3",
    "lat": 45.318783,
    "lon": 8.703242,
    "lefrecceId": 830000032
  },
  {
    "id": "S00171",
    "name": "Borgo Revel",
    "region": "3",
    "lat": 45.189827,
    "lon": 8.02021
  },
  {
    "id": "N00202",
    "name": "Borgo S. Giovanni",
    "region": null,
    "lat": null,
    "lon": null
  },
  {
    "id": "S06704",
    "name": "Borgo S. L. Rimorelli",
    "region": "13",
    "lat": 43.953279,
    "lon": 11.400076
  },
  {
    "id": "S06604",
    "name": "Borgo S. Lorenzo",
    "region": "13",
    "lat": 43.959822,
    "lon": 11.380422
  },
  {
    "id": "S00315",
    "name": "Borgo S. Martino",
    "region": "3",
    "lat": 45.087083,
    "lon": 8.520661
  },
  {
    "id": "S00613",
    "name": "Borgo San Dalmazzo",
    "region": "3",
    "lat": 44.326249,
    "lon": 7.486111
  },
  {
    "id": "S00981",
    "name": "Borgo Ticino",
    "region": "3",
    "lat": 45.691943,
    "lon": 8.602483
  },
  {
    "id": "S06161",
    "name": "Borgo Val di Taro",
    "region": "8",
    "lat": 44.486522,
    "lon": 9.781489
  },
  {
    "id": "S02313",
    "name": "Borgo Valsugana Centro",
    "region": "21",
    "lat": 46.051182,
    "lon": 11.453967
  },
  {
    "id": "S02314",
    "name": "Borgo Valsugana Est",
    "region": "9",
    "lat": 46.05224,
    "lon": 11.462119
  },
  {
    "id": "S00246",
    "name": "Borgo Vercelli",
    "region": "3",
    "lat": 45.359252,
    "lon": 8.461474
  },
  {
    "id": "S02338",
    "name": "Borgoforte",
    "region": "1",
    "lat": 45.050328,
    "lon": 10.752388
  },
  {
    "id": "S00152",
    "name": "Borgofranco",
    "region": "3",
    "lat": 45.514775,
    "lon": 7.854612
  },
  {
    "id": "S01830",
    "name": "Borgolombardo",
    "region": "1",
    "lat": 45.403856,
    "lon": 9.27111
  },
  {
    "id": "S00016",
    "name": "Borgomanero",
    "region": "3",
    "lat": 45.701054,
    "lon": 8.468093
  },
  {
    "id": "N00208",
    "name": "Borgonato - Adro",
    "region": null,
    "lat": null,
    "lon": null
  },
  {
    "id": "S00210",
    "name": "Borgone",
    "region": "3",
    "lat": 45.123191,
    "lon": 7.236037
  },
  {
    "id": "S05152",
    "name": "Borgonuovo",
    "region": null,
    "lat": null,
    "lon": null
  },
  {
    "id": "S00860",
    "name": "Borgoratto",
    "region": "3",
    "lat": 44.835999,
    "lon": 8.538182
  },
  {
    "id": "S00104",
    "name": "Borgosesia",
    "region": "3",
    "lat": 45.716798,
    "lon": 8.28239
  },
  {
    "id": "N00207",
    "name": "Bornato - Calino",
    "region": null,
    "lat": null,
    "lon": null
  },
  {
    "id": "S12872",
    "name": "Borore",
    "region": "20",
    "lat": 40.218992,
    "lon": 8.809535
  },
  {
    "id": "S02390",
    "name": "Boschi S. Anna",
    "region": "12",
    "lat": 45.217328,
    "lon": 11.362302
  },
  {
    "id": "S09452",
    "name": "Bosco Redole",
    "region": "7",
    "lat": 41.459299,
    "lon": 14.587884
  },
  {
    "id": "S00882",
    "name": "Bosconero",
    "region": null,
    "lat": null,
    "lon": null
  },
  {
    "id": "S09754",
    "name": "Boscoreale",
    "region": "18",
    "lat": 40.770786,
    "lon": 14.48017
  },
  {
    "id": "S11829",
    "name": "Botricello",
    "region": "17",
    "lat": 38.933943,
    "lon": 16.857433
  },
  {
    "id": "S03057",
    "name": "Bottenicchio Z. I.",
    "region": null,
    "lat": null,
    "lon": null
  },
  {
    "id": "S11860",
    "name": "Bova Marina",
    "region": "17",
    "lat": 37.930269,
    "lon": 15.923897
  },
  {
    "id": "S11854",
    "name": "Bovalino",
    "region": "17",
    "lat": 38.149087,
    "lon": 16.180584
  },
  {
    "id": "S09321",
    "name": "Bovino Deliceto",
    "region": "16",
    "lat": 41.27835,
    "lon": 15.369255
  },
  {
    "id": "S01085",
    "name": "Boviso Masciago - Mombello",
    "region": null,
    "lat": null,
    "lon": null
  },
  {
    "id": "S02363",
    "name": "Bovolone",
    "region": "12",
    "lat": 45.254446,
    "lon": 11.123862
  },
  {
    "id": "S01920",
    "name": "Bozzolo",
    "region": "1",
    "lat": 45.107246,
    "lon": 10.472655
  },
  {
    "id": "S00821",
    "name": "Bra",
    "region": "3",
    "lat": 44.693556,
    "lon": 7.848643
  },
  {
    "id": "S08315",
    "name": "Bracciano",
    "region": "5",
    "lat": 42.103667,
    "lon": 12.173023
  },
  {
    "id": "S04803",
    "name": "Bragno",
    "region": "2",
    "lat": 44.371679,
    "lon": 8.304473
  },
  {
    "id": "S11857",
    "name": "Brancaleone",
    "region": "17",
    "lat": 37.965475,
    "lon": 16.103301
  },
  {
    "id": "S00231",
    "name": "Brandizzo",
    "region": "3",
    "lat": 45.178915,
    "lon": 7.841218
  },
  {
    "id": "S00622",
    "name": "Breil Sur Roya",
    "region": "3",
    "lat": 43.890267,
    "lon": 7.530915
  },
  {
    "id": "S01452",
    "name": "Brenna-Alzate",
    "region": "1",
    "lat": 45.754044,
    "lon": 9.183312
  },
  {
    "id": "S02001",
    "name": "Brennero",
    "region": "22",
    "lat": 47.004117,
    "lon": 11.505711
  },
  {
    "id": "N00226",
    "name": "Breno",
    "region": null,
    "lat": null,
    "lon": null
  },
  {
    "id": "S01717",
    "name": "Brescia",
    "": "Brescia",
    "region": "1",
    "lat": 45.532315,
    "lon": 10.212828
  },
  {
    "id": "S01930",
    "name": "Bressana Argine",
    "region": "1",
    "lat": 45.072739,
    "lon": 9.137038
  },
  {
    "id": "S01805",
    "name": "Bressana Bottarone",
    "region": "1",
    "lat": 45.086298,
    "lon": 9.110602
  },
  {
    "id": "S02014",
    "name": "Bressanone",
    "region": "9",
    "lat": 46.710088,
    "lon": 11.649677
  },
  {
    "id": "S11757",
    "name": "Briatico",
    "region": "17",
    "lat": 38.725447,
    "lon": 16.025765
  },
  {
    "id": "S00521",
    "name": "Bricherasio",
    "region": "3",
    "lat": 44.824336,
    "lon": 7.307513
  },
  {
    "id": "S11136",
    "name": "Brindisi",
    "region": "16",
    "lat": 40.634339,
    "lon": 17.938978
  },
  {
    "id": "S11451",
    "name": "Brindisi di Montagna",
    "region": "15",
    "lat": 40.611991,
    "lon": 15.955795
  },
  {
    "id": "S11137",
    "name": "Brindisi Marittima",
    "region": "16",
    "lat": 40.633543,
    "lon": 17.94863
  },
  {
    "id": "S00113",
    "name": "Briona",
    "region": "3",
    "lat": 45.538568,
    "lon": 8.479541
  },
  {
    "id": "S06614",
    "name": "Brisighella",
    "region": "8",
    "lat": 44.220565,
    "lon": 11.769757
  },
  {
    "id": "S12031",
    "name": "Brolo Ficarra",
    "region": "14",
    "lat": 38.159204,
    "lon": 14.830176
  },
  {
    "id": "S01944",
    "name": "Broni",
    "region": "1",
    "lat": 45.066263,
    "lon": 9.258751
  },
  {
    "id": "S02030",
    "name": "Bronzolo",
    "region": "9",
    "lat": 46.40505,
    "lon": 11.315833
  },
  {
    "id": "S00424",
    "name": "Brozolo",
    "region": "3",
    "lat": 45.121299,
    "lon": 8.05893
  },
  {
    "id": "S02107",
    "name": "Brunico",
    "region": "9",
    "lat": 46.794922,
    "lon": 11.929989
  },
  {
    "id": "S02018",
    "name": "Brunico Nord",
    "region": null,
    "lat": null,
    "lon": null
  },
  {
    "id": "S00837",
    "name": "Bruno",
    "region": "3",
    "lat": 44.797947,
    "lon": 8.439639
  },
  {
    "id": "S00209",
    "name": "Bruzolo",
    "region": "3",
    "lat": 45.131032,
    "lon": 7.201497
  },
  {
    "id": "S09828",
    "name": "Buccino S.",
    "region": "18",
    "lat": 40.600806,
    "lon": 15.374199
  },
  {
    "id": "S06911",
    "name": "Bucine",
    "region": "13",
    "lat": 43.480478,
    "lon": 11.617609
  },
  {
    "id": "S03088",
    "name": "Budoia Polcenigo",
    "region": "10",
    "lat": 46.031464,
    "lon": 12.537637
  },
  {
    "id": "S08538",
    "name": "Bugnara",
    "region": "19",
    "lat": 42.031166,
    "lon": 13.862082
  },
  {
    "id": "S06874",
    "name": "Buonconvento",
    "region": "13",
    "lat": 43.135503,
    "lon": 11.483773
  },
  {
    "id": "S12016",
    "name": "Buonfornello",
    "region": "14",
    "lat": 37.972052,
    "lon": 13.816408
  },
  {
    "id": "S00054",
    "name": "Buronzo",
    "region": "3",
    "lat": 45.47179,
    "lon": 8.2667
  },
  {
    "id": "S04215",
    "name": "Busalla",
    "region": "2",
    "lat": 44.57558,
    "lon": 8.943611
  },
  {
    "id": "S00704",
    "name": "Busca",
    "region": "3",
    "lat": 44.520585,
    "lon": 7.481589
  },
  {
    "id": "S02563",
    "name": "Busche Lentiai Mel",
    "region": "12",
    "lat": 46.040092,
    "lon": 11.979251
  },
  {
    "id": "S01963",
    "name": "Busseto",
    "region": "8",
    "lat": 44.974692,
    "lon": 10.038909
  },
  {
    "id": "S07704",
    "name": "Bussi",
    "region": "19",
    "lat": 42.194154,
    "lon": 13.849075
  },
  {
    "id": "S00208",
    "name": "Bussoleno",
    "region": "3",
    "lat": 45.139631,
    "lon": 7.144819
  },
  {
    "id": "S01031",
    "name": "Busto Arsizio",
    "region": "1",
    "lat": 45.616164,
    "lon": 8.865031
  },
  {
    "id": "S01137",
    "name": "Busto Arsizio N.",
    "region": null,
    "lat": null,
    "lon": null
  },
  {
    "id": "N00107",
    "name": "Busto Arsizio RFI",
    "region": null,
    "lat": null,
    "lon": null
  },
  {
    "id": "S01482",
    "name": "Buttafava",
    "region": "1",
    "lat": 45.62141,
    "lon": 9.301185,
    "lefrecceId": 830001482
  },
  {
    "id": "S05301",
    "name": "Buttapietra",
    "region": "12",
    "lat": 45.338787,
    "lon": 10.988059
  },
  {
    "id": "S03029",
    "name": "Buttrio",
    "region": "10",
    "lat": 46.012664,
    "lon": 13.329039
  },
  {
    "id": "S06044",
    "name": "Ca' di Boschetti",
    "region": "2",
    "lat": 44.117925,
    "lon": 9.857449
  },
  {
    "id": "S01088",
    "name": "Cabiate",
    "region": null,
    "lat": null,
    "lon": null
  },
  {
    "id": "S05006",
    "name": "Cadeo",
    "region": "8",
    "lat": 44.967283,
    "lon": 9.853181
  },
  {
    "id": "N00038",
    "name": "Cadorago",
    "region": null,
    "lat": null,
    "lon": null
  },
  {
    "id": "S12891",
    "name": "Cagliari",
    "": "Cagliari",
    "region": "20",
    "lat": 39.216078,
    "lon": 9.107984
  },
  {
    "id": "S12890",
    "name": "Cagliari Elmas",
    "": "Cagliari",
    "region": "20",
    "lat": 39.264193,
    "lon": 9.045497
  },
  {
    "id": "S09025",
    "name": "Caiazzo",
    "region": null,
    "lat": null,
    "lon": null
  },
  {
    "id": "S00879",
    "name": "Cairo Montenotte",
    "region": "2",
    "lat": 44.394747,
    "lon": 8.278786
  },
  {
    "id": "S12851",
    "name": "Cala Sabina",
    "region": "20",
    "lat": 41.011012,
    "lon": 9.5881
  },
  {
    "id": "S02550",
    "name": "Calalzo Pieve Cadore Cortina",
    "region": "12",
    "lat": 46.443829,
    "lon": 12.388668
  },
  {
    "id": "S00833",
    "name": "Calamandrana",
    "region": "3",
    "lat": 44.738986,
    "lon": 8.331572
  },
  {
    "id": "S12321",
    "name": "Calatabiano",
    "region": "14",
    "lat": 37.814684,
    "lon": 15.226568
  },
  {
    "id": "S12151",
    "name": "Calatafimi",
    "region": "14",
    "lat": 37.938858,
    "lon": 12.856156
  },
  {
    "id": "S06080",
    "name": "Calbezano",
    "region": null,
    "lat": null,
    "lon": null
  },
  {
    "id": "S02307",
    "name": "Calceranica",
    "region": "9",
    "lat": 46.007384,
    "lon": 11.240713
  },
  {
    "id": "S11455",
    "name": "Calciano",
    "region": "15",
    "lat": 40.595117,
    "lon": 16.202526
  },
  {
    "id": "S01712",
    "name": "Calcio",
    "region": "1",
    "lat": 45.532937,
    "lon": 9.841342
  },
  {
    "id": "S01117",
    "name": "Calde'",
    "region": "1",
    "lat": 45.945812,
    "lon": 8.663157
  },
  {
    "id": "S02437",
    "name": "Caldiero",
    "region": "12",
    "lat": 45.41407,
    "lon": 11.169753
  },
  {
    "id": "S02308",
    "name": "Caldonazzo",
    "region": "9",
    "lat": 45.997575,
    "lon": 11.264815
  },
  {
    "id": "S06417",
    "name": "Calenzano",
    "region": "13",
    "lat": 43.856429,
    "lon": 11.14537
  },
  {
    "id": "S09620",
    "name": "Calitri Pescopagano",
    "region": "18",
    "lat": 40.884932,
    "lon": 15.427962
  },
  {
    "id": "S02041",
    "name": "Calliano",
    "region": null,
    "lat": null,
    "lon": null
  },
  {
    "id": "S01524",
    "name": "Calolziocorte Olginate",
    "region": "1",
    "lat": 45.801619,
    "lon": 9.42698
  },
  {
    "id": "S11815",
    "name": "Calopezzati",
    "region": "17",
    "lat": 39.579022,
    "lon": 16.819361
  },
  {
    "id": "S12270",
    "name": "Caltagirone",
    "region": "14",
    "lat": 37.225276,
    "lon": 14.521165
  },
  {
    "id": "S12381",
    "name": "Caltanissetta Centrale",
    "region": "14",
    "lat": 37.48829,
    "lon": 14.057396,
    "lefrecceId": 830012381
  },
  {
    "id": "S12380",
    "name": "Caltanissetta Xirbi",
    "region": "14",
    "lat": 37.536296,
    "lon": 14.056902
  },
  {
    "id": "S00020",
    "name": "Caltignaga",
    "region": "3",
    "lat": 45.519167,
    "lon": 8.591602
  },
  {
    "id": "S01503",
    "name": "Calusco",
    "region": "1",
    "lat": 45.684113,
    "lon": 9.470646
  },
  {
    "id": "S00158",
    "name": "Caluso",
    "region": "3",
    "lat": 45.303194,
    "lon": 7.902568
  },
  {
    "id": "S01843",
    "name": "Calvisano",
    "region": "1",
    "lat": 45.346572,
    "lon": 10.349411
  },
  {
    "id": "S06043",
    "name": "Camaiore Lido Capezzano",
    "region": "13",
    "lat": 43.912176,
    "lon": 10.24765
  },
  {
    "id": "S06804",
    "name": "Cambiano",
    "region": "13",
    "lat": 43.631183,
    "lon": 10.958997
  },
  {
    "id": "S00456",
    "name": "Cambiano Santena",
    "region": "3",
    "lat": 44.966491,
    "lon": 7.773225
  },
  {
    "id": "S07021",
    "name": "Camerano Aspio",
    "region": null,
    "lat": null,
    "lon": null
  },
  {
    "id": "S12207",
    "name": "Cammarata S. Giovanni Gemini",
    "region": "14",
    "lat": 37.653759,
    "lon": 13.673791
  },
  {
    "id": "S01316",
    "name": "Camnago-Lentate",
    "region": "1",
    "lat": 45.668425,
    "lon": 9.133451
  },
  {
    "id": "S04716",
    "name": "Camogli San Fruttuoso",
    "region": "2",
    "lat": 44.348166,
    "lon": 9.156743
  },
  {
    "id": "S09825",
    "name": "Campagna Serre Persano",
    "region": "18",
    "lat": 40.595667,
    "lon": 15.113986
  },
  {
    "id": "S07219",
    "name": "Campello",
    "region": "6",
    "lat": 42.822814,
    "lon": 12.761253
  },
  {
    "id": "S06031",
    "name": "Campiglia Marittima",
    "region": "13",
    "lat": 43.017118,
    "lon": 10.586558
  },
  {
    "id": "S08706",
    "name": "Campo di Carne",
    "region": "5",
    "lat": 41.552116,
    "lon": 12.635125
  },
  {
    "id": "S08903",
    "name": "Campo di Giove",
    "region": "19",
    "lat": 42.007967,
    "lon": 14.041492
  },
  {
    "id": "S08919",
    "name": "Campo di Giove-Monte Maiella",
    "region": "19",
    "lat": 41.993262,
    "lon": 14.069088
  },
  {
    "id": "S09626",
    "name": "Campo di Nusco",
    "region": "18",
    "lat": 40.879143,
    "lon": 15.129255
  },
  {
    "id": "S02007",
    "name": "Campo di Trens",
    "region": "9",
    "lat": 46.869076,
    "lon": 11.488231
  },
  {
    "id": "S09459",
    "name": "Campobasso",
    "region": "7",
    "lat": 41.558137,
    "lon": 14.66393
  },
  {
    "id": "S12112",
    "name": "Campobello di Mazara",
    "region": "14",
    "lat": 37.636256,
    "lon": 12.733165
  },
  {
    "id": "S12385",
    "name": "Campobello Ravanusa",
    "region": "14",
    "lat": 37.265731,
    "lon": 13.946251
  },
  {
    "id": "S02527",
    "name": "Campodarsego",
    "region": "12",
    "lat": 45.505721,
    "lon": 11.900894
  },
  {
    "id": "S12017",
    "name": "Campofelice",
    "region": "14",
    "lat": 37.992615,
    "lon": 13.876549
  },
  {
    "id": "S12211",
    "name": "Campofranco",
    "region": "14",
    "lat": 37.510105,
    "lon": 13.686777
  },
  {
    "id": "S09505",
    "name": "Campolattaro",
    "region": "18",
    "lat": 41.285869,
    "lon": 14.726853
  },
  {
    "id": "S08602",
    "name": "Campoleone",
    "region": "5",
    "lat": 41.642396,
    "lon": 12.648341
  },
  {
    "id": "S09462",
    "name": "Campolieto Monacilioni",
    "region": "7",
    "lat": 41.642573,
    "lon": 14.76544
  },
  {
    "id": "S04105",
    "name": "Campoligure Masone",
    "region": "2",
    "lat": 44.530909,
    "lon": 8.700878
  },
  {
    "id": "S11454",
    "name": "Campomaggiore",
    "region": "15",
    "lat": 40.550772,
    "lon": 16.086766
  },
  {
    "id": "S11020",
    "name": "Campomarino",
    "region": "7",
    "lat": 41.957398,
    "lon": 15.042416
  },
  {
    "id": "S12815",
    "name": "Campomela",
    "region": "20",
    "lat": 40.68139,
    "lon": 8.638875
  },
  {
    "id": "S06659",
    "name": "Campomigliaio",
    "region": "13",
    "lat": 43.937241,
    "lon": 11.303593
  },
  {
    "id": "S11745",
    "name": "Campora S. Giov.serra Aiello",
    "region": "17",
    "lat": 39.068402,
    "lon": 16.09102
  },
  {
    "id": "S00889",
    "name": "Campore",
    "region": null,
    "lat": null,
    "lon": null
  },
  {
    "id": "S06324",
    "name": "Camporgiano",
    "region": "13",
    "lat": 44.161448,
    "lon": 10.334849
  },
  {
    "id": "S02525",
    "name": "Camposampiero",
    "region": "12",
    "lat": 45.568922,
    "lon": 11.928293
  },
  {
    "id": "S05314",
    "name": "Camposanto",
    "region": "8",
    "lat": 44.787527,
    "lon": 11.143587
  },
  {
    "id": "S06921",
    "name": "Camucia Cortona",
    "region": "13",
    "lat": 43.261104,
    "lon": 11.971245
  },
  {
    "id": "S07232",
    "name": "Cancelli di Fabriano",
    "region": null,
    "lat": null,
    "lon": null
  },
  {
    "id": "S08735",
    "name": "Cancelliera",
    "region": "5",
    "lat": 41.710587,
    "lon": 12.621758
  },
  {
    "id": "S09213",
    "name": "Cancello",
    "region": "18",
    "lat": 40.993063,
    "lon": 14.418877
  },
  {
    "id": "S09002",
    "name": "Cancello Arnone",
    "region": "18",
    "lat": 41.063369,
    "lon": 14.02901
  },
  {
    "id": "S11204",
    "name": "Candela",
    "region": "16",
    "lat": 41.151439,
    "lon": 15.533163
  },
  {
    "id": "S00071",
    "name": "Candelo",
    "region": "3",
    "lat": 45.547433,
    "lon": 8.100103
  },
  {
    "id": "S00157",
    "name": "Candia Canavese",
    "region": "3",
    "lat": 45.329824,
    "lon": 7.891819,
    "lefrecceId": 830000157
  },
  {
    "id": "S00333",
    "name": "Candia Lomellina",
    "region": "1",
    "lat": 45.179911,
    "lon": 8.593156
  },
  {
    "id": "S11105",
    "name": "Candida",
    "region": "16",
    "lat": 41.346664,
    "lon": 15.996588
  },
  {
    "id": "S00512",
    "name": "Candiolo",
    "region": "3",
    "lat": 44.961155,
    "lon": 7.598973
  },
  {
    "id": "S01011",
    "name": "Candoglia Ornavasso",
    "region": "3",
    "lat": 45.977489,
    "lon": 8.419715
  },
  {
    "id": "S01034",
    "name": "Canegrate",
    "region": "1",
    "lat": 45.569235,
    "lon": 8.926593
  },
  {
    "id": "S00832",
    "name": "Canelli",
    "region": "3",
    "lat": 44.716716,
    "lon": 8.294544
  },
  {
    "id": "S07429",
    "name": "Canetra",
    "region": "5",
    "lat": 42.391578,
    "lon": 13.029159
  },
  {
    "id": "S12375",
    "name": "Canicatti'",
    "region": "14",
    "lat": 37.359879,
    "lon": 13.855395
  },
  {
    "id": "S12812",
    "name": "Caniga",
    "region": "20",
    "lat": 40.716116,
    "lon": 8.526395
  },
  {
    "id": "S08812",
    "name": "Canistro",
    "region": null,
    "lat": null,
    "lon": null
  },
  {
    "id": "S07009",
    "name": "Cannara",
    "region": "6",
    "lat": 43.019591,
    "lon": 12.628709
  },
  {
    "id": "S11406",
    "name": "Canne della Battaglia",
    "region": "16",
    "lat": 41.294583,
    "lon": 16.146169
  },
  {
    "id": "S01848",
    "name": "Canneto Sull'Oglio",
    "region": "1",
    "lat": 45.150211,
    "lon": 10.37147
  },
  {
    "id": "S11402",
    "name": "Canosa di Puglia",
    "region": "16",
    "lat": 41.218556,
    "lon": 16.053906
  },
  {
    "id": "S09451",
    "name": "Cantalupo del Sannio",
    "region": "7",
    "lat": 41.5174,
    "lon": 14.6671
  },
  {
    "id": "S01451",
    "name": "Cantu'",
    "region": "1",
    "lat": 45.752316,
    "lon": 9.130321
  },
  {
    "id": "S01313",
    "name": "Cantu'- Cermenate",
    "region": "1",
    "lat": 45.716236,
    "lon": 9.099284
  },
  {
    "id": "S01099",
    "name": "Canzo",
    "region": null,
    "lat": null,
    "lon": null
  },
  {
    "id": "S01970",
    "name": "Caorso",
    "region": "8",
    "lat": 45.042048,
    "lon": 9.868157
  },
  {
    "id": "S11702",
    "name": "Capaccio Roccadaspide",
    "region": "18",
    "lat": 40.454518,
    "lon": 15.013551
  },
  {
    "id": "S12128",
    "name": "Capaci",
    "region": "14",
    "lat": 38.171794,
    "lon": 13.232398
  },
  {
    "id": "S08006",
    "name": "Capalbio",
    "region": "13",
    "lat": 42.407974,
    "lon": 11.370982
  },
  {
    "id": "S08672",
    "name": "Capannelle",
    "region": "5",
    "lat": 41.830713,
    "lon": 12.568884
  },
  {
    "id": "S08850",
    "name": "Capistrello",
    "region": "19",
    "lat": 41.97051,
    "lon": 13.399276
  },
  {
    "id": "S11734",
    "name": "Capo Bonifati",
    "region": "17",
    "lat": 39.558342,
    "lon": 15.874052
  },
  {
    "id": "S12030",
    "name": "Capo d'Orlando-Naso",
    "region": "14",
    "lat": 38.157941,
    "lon": 14.744844
  },
  {
    "id": "N00229",
    "name": "Capo di Ponte",
    "region": null,
    "lat": null,
    "lon": null
  },
  {
    "id": "S11858",
    "name": "Capo Spartivento",
    "region": "17",
    "lat": 37.924778,
    "lon": 16.058342
  },
  {
    "id": "S08804",
    "name": "Capocroce",
    "region": null,
    "lat": null,
    "lon": null
  },
  {
    "id": "S07215",
    "name": "Capodacqua Pieve Fanonica",
    "region": "6",
    "lat": 43.026769,
    "lon": 12.7541
  },
  {
    "id": "S06083",
    "name": "Capolona",
    "region": null,
    "lat": null,
    "lon": null
  },
  {
    "id": "S08525",
    "name": "Cappelle-Magliano",
    "region": "19",
    "lat": 42.059369,
    "lon": 13.372468
  },
  {
    "id": "S01603",
    "name": "Capralba",
    "region": "1",
    "lat": 45.443871,
    "lon": 9.640015
  },
  {
    "id": "S08311",
    "name": "Capranica",
    "region": "5",
    "lat": 42.245195,
    "lon": 12.157194
  },
  {
    "id": "S08110",
    "name": "Caprarola",
    "region": "5",
    "lat": 42.303815,
    "lon": 12.258238
  },
  {
    "id": "S09061",
    "name": "Capriati al Volturno",
    "region": "7",
    "lat": 41.44279,
    "lon": 14.070664
  },
  {
    "id": "S01622",
    "name": "Capriolo",
    "region": "1",
    "lat": 45.64556,
    "lon": 9.933806
  },
  {
    "id": "S03301",
    "name": "Capriva",
    "region": "10",
    "lat": 45.938764,
    "lon": 13.517494
  },
  {
    "id": "S09208",
    "name": "Capua",
    "region": "18",
    "lat": 41.101306,
    "lon": 14.210347
  },
  {
    "id": "S01486",
    "name": "Carate-Calo'",
    "region": "1",
    "lat": 45.676451,
    "lon": 9.252304
  },
  {
    "id": "S01602",
    "name": "Caravaggio",
    "region": "1",
    "lat": 45.491158,
    "lon": 9.637723,
    "lefrecceId": 830001602
  },
  {
    "id": "S05120",
    "name": "Carbona",
    "region": "8",
    "lat": 44.246876,
    "lon": 11.09618
  },
  {
    "id": "S04300",
    "name": "Carbonara Scrivia",
    "region": "3",
    "lat": 44.860173,
    "lon": 8.853772
  },
  {
    "id": "S12818",
    "name": "Carbonia Serbariu",
    "region": "20",
    "lat": 39.169508,
    "lon": 8.509186,
    "lefrecceId": 830013703
  },
  {
    "id": "S12972",
    "name": "Carbonia Stato",
    "region": null,
    "lat": null,
    "lon": null
  },
  {
    "id": "S12140",
    "name": "Cardillo Zen",
    "region": "14",
    "lat": 38.17495,
    "lon": 13.296897
  },
  {
    "id": "S00839",
    "name": "Carentino",
    "region": "3",
    "lat": 44.831303,
    "lon": 8.470474
  },
  {
    "id": "S11818",
    "name": "Cariati",
    "region": "17",
    "lat": 39.496884,
    "lon": 16.952018
  },
  {
    "id": "S01315",
    "name": "Carimate",
    "region": "1",
    "lat": 45.697094,
    "lon": 9.107188
  },
  {
    "id": "S12127",
    "name": "Carini",
    "region": "14",
    "lat": 38.147696,
    "lon": 13.186624
  },
  {
    "id": "S12799",
    "name": "Carini Torre Ciachea",
    "region": "14",
    "lat": 38.16149,
    "lon": 13.219641
  },
  {
    "id": "S00055",
    "name": "Carisio",
    "region": "3",
    "lat": 45.403164,
    "lon": 8.21249
  },
  {
    "id": "S00601",
    "name": "Carmagnola",
    "region": "3",
    "lat": 44.846944,
    "lon": 7.72797
  },
  {
    "id": "S02532",
    "name": "Carmignano di Brenta",
    "region": "12",
    "lat": 45.621354,
    "lon": 11.714891
  },
  {
    "id": "S01511",
    "name": "Carnate Usmate",
    "region": "1",
    "lat": 45.653072,
    "lon": 9.375089
  },
  {
    "id": "S03016",
    "name": "Carnia",
    "region": "10",
    "lat": 46.373634,
    "lon": 13.132847
  },
  {
    "id": "S12025",
    "name": "Caronia",
    "region": "14",
    "lat": 38.034475,
    "lon": 14.443761
  },
  {
    "id": "S01076",
    "name": "Caronno Pertusella",
    "region": null,
    "lat": null,
    "lon": null
  },
  {
    "id": "S11133",
    "name": "Carovigno",
    "region": "16",
    "lat": 40.737337,
    "lon": 17.683791
  },
  {
    "id": "S08914",
    "name": "Carovilli-Roccasicura",
    "region": "7",
    "lat": 41.712485,
    "lon": 14.299732
  },
  {
    "id": "S02502",
    "name": "Carpane'Valstagna",
    "region": "12",
    "lat": 45.860128,
    "lon": 11.661183
  },
  {
    "id": "S02349",
    "name": "Carpi",
    "region": "8",
    "lat": 44.782919,
    "lon": 10.891952
  },
  {
    "id": "S00971",
    "name": "Carpignano Sesia",
    "region": "3",
    "lat": 45.528934,
    "lon": 8.422898
  },
  {
    "id": "S09050",
    "name": "Carpinone",
    "region": "7",
    "lat": 41.588038,
    "lon": 14.326783
  },
  {
    "id": "S06005",
    "name": "Carrara Avenza",
    "region": "13",
    "lat": 44.051239,
    "lon": 10.062927
  },
  {
    "id": "S08533",
    "name": "Carrito-Ortona",
    "region": "19",
    "lat": 42.026506,
    "lon": 13.720179
  },
  {
    "id": "S00738",
    "name": "Carru' Clavesana",
    "region": "3",
    "lat": 44.479548,
    "lon": 7.891414
  },
  {
    "id": "S12326",
    "name": "Carruba",
    "region": "14",
    "lat": 37.694344,
    "lon": 15.196143
  },
  {
    "id": "S08519",
    "name": "Carsoli",
    "region": "19",
    "lat": 42.09578,
    "lon": 13.080388
  },
  {
    "id": "S01091",
    "name": "Carugo - Giussano",
    "region": null,
    "lat": null,
    "lon": null
  },
  {
    "id": "S08730",
    "name": "Casabianca",
    "region": "5",
    "lat": 41.788327,
    "lon": 12.60431
  },
  {
    "id": "S09465",
    "name": "Casacalenda Guardialfiera",
    "region": "7",
    "lat": 41.738109,
    "lon": 14.849602
  },
  {
    "id": "S11309",
    "name": "Casal Sabini",
    "region": "16",
    "lat": 40.799021,
    "lon": 16.647908
  },
  {
    "id": "S07821",
    "name": "Casalbordino Pollutri",
    "region": "19",
    "lat": 42.193653,
    "lon": 14.633045
  },
  {
    "id": "S09910",
    "name": "Casalbuono",
    "region": "18",
    "lat": 40.214093,
    "lon": 15.686095
  },
  {
    "id": "S01609",
    "name": "Casalbuttano",
    "region": "1",
    "lat": 45.255398,
    "lon": 9.962361
  },
  {
    "id": "S00314",
    "name": "Casale Monferrato",
    "region": "3",
    "lat": 45.133928,
    "lon": 8.460292
  },
  {
    "id": "S00179",
    "name": "Casale Popolo",
    "region": "3",
    "lat": 45.160434,
    "lon": 8.44055
  },
  {
    "id": "S05101",
    "name": "Casalecchio di Reno",
    "region": "8",
    "lat": 44.474298,
    "lon": 11.276097
  },
  {
    "id": "S05111",
    "name": "Casalecchio Garibaldi",
    "region": "8",
    "lat": 44.482995,
    "lon": 11.272474
  },
  {
    "id": "S00972",
    "name": "Casaleggio",
    "region": "3",
    "lat": 45.491298,
    "lon": 8.490369
  },
  {
    "id": "S09922",
    "name": "Casaletto",
    "region": null,
    "lat": null,
    "lon": null
  },
  {
    "id": "S01604",
    "name": "Casaletto Vaprio",
    "region": "1",
    "lat": 45.408641,
    "lon": 9.631746
  },
  {
    "id": "S01850",
    "name": "Casalmaggiore",
    "region": "1",
    "lat": 44.993139,
    "lon": 10.425023
  },
  {
    "id": "S09216",
    "name": "Casalnuovo",
    "region": "18",
    "lat": 40.915559,
    "lon": 14.35296
  },
  {
    "id": "S01827",
    "name": "Casalpusterlengo",
    "region": "1",
    "lat": 45.182473,
    "lon": 9.653627
  },
  {
    "id": "S02059",
    "name": "Casanova Kaiserau",
    "region": null,
    "lat": null,
    "lon": null
  },
  {
    "id": "S02830",
    "name": "Casarsa",
    "region": "10",
    "lat": 45.953002,
    "lon": 12.8406
  },
  {
    "id": "S06505",
    "name": "Cascina",
    "region": "13",
    "lat": 43.674542,
    "lon": 10.545225
  },
  {
    "id": "S00087",
    "name": "Caselle",
    "region": null,
    "lat": null,
    "lon": null
  },
  {
    "id": "S00088",
    "name": "Caselle Aeroporto",
    "region": null,
    "lat": null,
    "lon": null
  },
  {
    "id": "S09211",
    "name": "Caserta",
    "region": "18",
    "lat": 41.068655,
    "lon": 14.328457
  },
  {
    "id": "S06751",
    "name": "Casino di Terra",
    "region": "13",
    "lat": 43.328581,
    "lon": 10.662975
  },
  {
    "id": "S01457",
    "name": "Casletto-Rogeno",
    "region": "1",
    "lat": 45.786028,
    "lon": 9.275375
  },
  {
    "id": "N00037",
    "name": "Caslino al Piano",
    "region": null,
    "lat": null,
    "lon": null
  },
  {
    "id": "S01098",
    "name": "Caslino d'Erba",
    "region": null,
    "lat": null,
    "lon": null
  },
  {
    "id": "S07991",
    "name": "Casoli",
    "region": null,
    "lat": null,
    "lon": null
  },
  {
    "id": "S01029",
    "name": "Casorate Sempione",
    "region": "1",
    "lat": 45.675075,
    "lon": 8.743954
  },
  {
    "id": "S09009",
    "name": "Casoria",
    "region": "18",
    "lat": 40.907762,
    "lon": 14.29874
  },
  {
    "id": "S01490",
    "name": "Cassago-Nibionno-Bulciago",
    "region": "1",
    "lat": 45.746243,
    "lon": 9.279834
  },
  {
    "id": "S11900",
    "name": "Cassano All'Ionio",
    "region": "17",
    "lat": 39.726326,
    "lon": 16.35218
  },
  {
    "id": "S01707",
    "name": "Cassano d'Adda",
    "region": "1",
    "lat": 45.514372,
    "lon": 9.512746
  },
  {
    "id": "S09611",
    "name": "Cassano Irpino",
    "region": "18",
    "lat": 40.869227,
    "lon": 15.031213
  },
  {
    "id": "S00864",
    "name": "Cassine",
    "region": "3",
    "lat": 44.751513,
    "lon": 8.533613
  },
  {
    "id": "S08671",
    "name": "Cassino",
    "region": "5",
    "lat": 41.484306,
    "lon": 13.832125
  },
  {
    "id": "S02506",
    "name": "Cassola",
    "region": "12",
    "lat": 45.732291,
    "lon": 11.795866
  },
  {
    "id": "S02368",
    "name": "Castagnaro",
    "region": "12",
    "lat": 45.119349,
    "lon": 11.403936
  },
  {
    "id": "S06029",
    "name": "Castagneto Carducci",
    "region": "13",
    "lat": 43.16816,
    "lon": 10.56399
  },
  {
    "id": "S05122",
    "name": "Castagno",
    "region": "13",
    "lat": 44.012359,
    "lon": 10.91538
  },
  {
    "id": "S00828",
    "name": "Castagnole delle Lanze",
    "region": "3",
    "lat": 44.749341,
    "lon": 8.152836
  },
  {
    "id": "N00050",
    "name": "Castano Primo",
    "region": null,
    "lat": null,
    "lon": null
  },
  {
    "id": "S01942",
    "name": "Casteggio",
    "region": "1",
    "lat": 45.017365,
    "lon": 9.124595
  },
  {
    "id": "N00204",
    "name": "Castegnato",
    "region": null,
    "lat": null,
    "lon": null
  },
  {
    "id": "S08114",
    "name": "Castel Bagnolo di Orte",
    "region": "5",
    "lat": 42.400183,
    "lon": 12.400781
  },
  {
    "id": "S02382",
    "name": "Castel d'Ario",
    "region": "1",
    "lat": 45.183399,
    "lon": 10.97531
  },
  {
    "id": "S08910",
    "name": "Castel di Sangro",
    "region": "19",
    "lat": 41.777829,
    "lon": 14.112049
  },
  {
    "id": "S07987",
    "name": "Castel Frentano",
    "region": null,
    "lat": null,
    "lon": null
  },
  {
    "id": "S08703",
    "name": "Castel Gandolfo",
    "": "Castel Gandolfo",
    "region": "5",
    "lat": 41.746946,
    "lon": 12.652266
  },
  {
    "id": "S11212",
    "name": "Castel Lagopesole",
    "region": "15",
    "lat": 40.787682,
    "lon": 15.758093
  },
  {
    "id": "S08510",
    "name": "Castel Madama",
    "region": "5",
    "lat": 41.988389,
    "lon": 12.864938
  },
  {
    "id": "S07407",
    "name": "Castel S. Angelo",
    "region": "5",
    "lat": 42.379666,
    "lon": 13.017612
  },
  {
    "id": "S09704",
    "name": "Castel S. Giorgio Roccapiemonte",
    "region": "18",
    "lat": 40.758713,
    "lon": 14.692352
  },
  {
    "id": "S01948",
    "name": "Castel S. Giovanni",
    "region": "8",
    "lat": 45.063272,
    "lon": 9.436856
  },
  {
    "id": "S05053",
    "name": "Castel S. Pietro Terme",
    "region": "8",
    "lat": 44.407376,
    "lon": 11.597681
  },
  {
    "id": "S02208",
    "name": "Castelbello",
    "region": "9",
    "lat": 46.626994,
    "lon": 10.897884
  },
  {
    "id": "S05056",
    "name": "Castelbolognese",
    "region": "8",
    "lat": 44.325391,
    "lon": 11.804174
  },
  {
    "id": "S12020",
    "name": "Castelbuono",
    "region": "14",
    "lat": 38.014606,
    "lon": 14.108578
  },
  {
    "id": "S12010",
    "name": "Casteldaccia",
    "region": "14",
    "lat": 38.060474,
    "lon": 13.536867
  },
  {
    "id": "S02105",
    "name": "Casteldarne",
    "region": "9",
    "lat": 46.797708,
    "lon": 11.844223
  },
  {
    "id": "S05102",
    "name": "Casteldebole",
    "region": "8",
    "lat": 44.503974,
    "lon": 11.27456
  },
  {
    "id": "S07200",
    "name": "Castelferretti",
    "region": "11",
    "lat": 43.607303,
    "lon": 13.357519
  },
  {
    "id": "S06802",
    "name": "Castelfiorentino",
    "region": "13",
    "lat": 43.60542,
    "lon": 10.968048
  },
  {
    "id": "S09609",
    "name": "Castelfranci",
    "region": "18",
    "lat": 40.935968,
    "lon": 15.038655
  },
  {
    "id": "S05037",
    "name": "Castelfranco d'Emilia",
    "region": "8",
    "lat": 44.597381,
    "lon": 11.056408
  },
  {
    "id": "S09323",
    "name": "Castelfranco in Miscano",
    "region": null,
    "lat": null,
    "lon": null
  },
  {
    "id": "S02537",
    "name": "Castelfranco Veneto",
    "region": "12",
    "lat": 45.666439,
    "lon": 11.934315
  },
  {
    "id": "S05012",
    "name": "Castelguelfo",
    "region": "8",
    "lat": 44.836434,
    "lon": 10.176706
  },
  {
    "id": "S00343",
    "name": "Castell'Alfero",
    "region": "3",
    "lat": 44.986347,
    "lon": 8.220882
  },
  {
    "id": "S07901",
    "name": "Castellalto Canzano",
    "region": "19",
    "lat": 42.69564,
    "lon": 13.793043
  },
  {
    "id": "S12120",
    "name": "Castellammare del Golfo",
    "region": "14",
    "lat": 38.024309,
    "lon": 12.912209
  },
  {
    "id": "S09756",
    "name": "Castellammare di Stabia",
    "region": "18",
    "lat": 40.701398,
    "lon": 14.483737
  },
  {
    "id": "S11507",
    "name": "Castellaneta",
    "region": null,
    "lat": null,
    "lon": null
  },
  {
    "id": "S11463",
    "name": "Castellaneta Marina",
    "region": "16",
    "lat": 40.481111,
    "lon": 16.965434
  },
  {
    "id": "S01136",
    "name": "Castellanza",
    "region": null,
    "lat": null,
    "lon": null
  },
  {
    "id": "S04000",
    "name": "Castellazzo Casalcermelli",
    "region": "3",
    "lat": 44.843839,
    "lon": 8.589645
  },
  {
    "id": "S01606",
    "name": "Castelleone",
    "region": "1",
    "lat": 45.301826,
    "lon": 9.76779
  },
  {
    "id": "S00720",
    "name": "Castelletto Busca",
    "region": "3",
    "lat": 44.501319,
    "lon": 7.463939
  },
  {
    "id": "S01123",
    "name": "Castelletto Ticino",
    "region": "3",
    "lat": 45.710757,
    "lon": 8.638259
  },
  {
    "id": "S06808",
    "name": "Castellina Ch",
    "region": "13",
    "lat": 43.408744,
    "lon": 11.212379
  },
  {
    "id": "S06024",
    "name": "Castellina Marittima",
    "region": "13",
    "lat": 43.406122,
    "lon": 10.495776
  },
  {
    "id": "S00741",
    "name": "Castellino Tanaro",
    "region": "3",
    "lat": 44.41657,
    "lon": 7.974321
  },
  {
    "id": "S00465",
    "name": "Castello d'Annone",
    "region": "3",
    "lat": 44.878742,
    "lon": 8.312724
  },
  {
    "id": "S02507",
    "name": "Castello di Godego",
    "region": "12",
    "lat": 45.688082,
    "lon": 11.87759
  },
  {
    "id": "S01923",
    "name": "Castellucchio",
    "region": "1",
    "lat": 45.144293,
    "lon": 10.64749
  },
  {
    "id": "S09920",
    "name": "Castelluccio",
    "region": null,
    "lat": null,
    "lon": null
  },
  {
    "id": "S05724",
    "name": "Castelmaggiore",
    "region": "8",
    "lat": 44.576055,
    "lon": 11.366901
  },
  {
    "id": "S02093",
    "name": "Castelnuovo",
    "region": "12",
    "lat": 45.430843,
    "lon": 10.758273
  },
  {
    "id": "S00836",
    "name": "Castelnuovo Belbo",
    "region": "3",
    "lat": 44.798127,
    "lon": 8.42516
  },
  {
    "id": "S06812",
    "name": "Castelnuovo Berardenga",
    "region": "13",
    "lat": 43.306882,
    "lon": 11.484912
  },
  {
    "id": "S06300",
    "name": "Castelnuovo di Garfagnana",
    "region": "13",
    "lat": 44.116351,
    "lon": 10.409054
  },
  {
    "id": "S07204",
    "name": "Castelplanio Cupramontana",
    "region": "11",
    "lat": 43.481403,
    "lon": 13.084733
  },
  {
    "id": "S07302",
    "name": "Castelraimondo Camerino",
    "region": "11",
    "lat": 43.210511,
    "lon": 13.057274
  },
  {
    "id": "S00233",
    "name": "Castelrosso",
    "region": "3",
    "lat": 45.201802,
    "lon": 7.932162
  },
  {
    "id": "S04001",
    "name": "Castelspina Portanova",
    "region": "3",
    "lat": 44.796662,
    "lon": 8.62203
  },
  {
    "id": "S06302",
    "name": "Castelvecchio Pascoli",
    "region": "13",
    "lat": 44.09007,
    "lon": 10.455061
  },
  {
    "id": "S09608",
    "name": "Castelvetere",
    "region": "18",
    "lat": 40.952072,
    "lon": 15.011348
  },
  {
    "id": "S12113",
    "name": "Castelvetrano",
    "region": "14",
    "lat": 37.684977,
    "lon": 12.799552
  },
  {
    "id": "S01960",
    "name": "Castelvetro",
    "region": "8",
    "lat": 45.100095,
    "lon": 9.982181
  },
  {
    "id": "S06923",
    "name": "Castiglion del Lago",
    "region": "6",
    "lat": 43.123195,
    "lon": 12.032077
  },
  {
    "id": "S06920",
    "name": "Castiglion Fiorentino",
    "region": "13",
    "lat": 43.34075,
    "lon": 11.914362
  },
  {
    "id": "S06729",
    "name": "Castiglioncello",
    "region": "13",
    "lat": 43.404619,
    "lon": 10.414354
  },
  {
    "id": "S11909",
    "name": "Castiglione Cosentino",
    "region": "17",
    "lat": 39.35542,
    "lon": 16.244388
  },
  {
    "id": "S12362",
    "name": "Castiglione di Sicilia",
    "region": "14",
    "lat": 37.88674,
    "lon": 15.097013
  },
  {
    "id": "S08205",
    "name": "Castiglione in Teverina",
    "region": "6",
    "lat": 42.648544,
    "lon": 12.234913
  },
  {
    "id": "S01429",
    "name": "Castione Andevenno",
    "region": "1",
    "lat": 46.161659,
    "lon": 9.806151
  },
  {
    "id": "S01964",
    "name": "Castione dei Marchesi",
    "region": "8",
    "lat": 44.915157,
    "lon": 10.044449
  },
  {
    "id": "S08663",
    "name": "Castro-Pofi",
    "region": "5",
    "lat": 41.533014,
    "lon": 13.410741
  },
  {
    "id": "S01208",
    "name": "Castronno",
    "region": "1",
    "lat": 45.74524,
    "lon": 8.810302
  },
  {
    "id": "S12337",
    "name": "Catania Acquicella",
    "": "Catania",
    "region": "14",
    "lat": 37.492765,
    "lon": 15.074699
  },
  {
    "id": "S12332",
    "name": "Catania Centrale",
    "": "Catania",
    "region": "14",
    "lat": 37.506211,
    "lon": 15.099417,
    "lefrecceId": 830012332
  },
  {
    "id": "S12331",
    "name": "Catania Ognina",
    "": "Catania",
    "region": "14",
    "lat": 37.534049,
    "lon": 15.11261
  },
  {
    "id": "S11956",
    "name": "Catanzaro",
    "region": "17",
    "lat": 38.896222,
    "lon": 16.599081
  },
  {
    "id": "S11833",
    "name": "Catanzaro Lido",
    "region": "17",
    "lat": 38.821788,
    "lon": 16.612975
  },
  {
    "id": "S12244",
    "name": "Catenanuova",
    "region": "14",
    "lat": 37.562026,
    "lon": 14.688263
  },
  {
    "id": "S07102",
    "name": "Cattolica S. Giovanni Gabicce",
    "region": "8",
    "lat": 43.959931,
    "lon": 12.745087
  },
  {
    "id": "S11846",
    "name": "Caulonia",
    "region": "17",
    "lat": 38.343785,
    "lon": 16.467278
  },
  {
    "id": "S00279",
    "name": "Cava Carbonara",
    "region": "1",
    "lat": 45.147055,
    "lon": 9.071387,
    "lefrecceId": 830000279
  },
  {
    "id": "S09816",
    "name": "Cava dei Tirreni",
    "region": "18",
    "lat": 40.703662,
    "lon": 14.708461
  },
  {
    "id": "S01804",
    "name": "Cava Manara",
    "region": "1",
    "lat": 45.144867,
    "lon": 9.115332
  },
  {
    "id": "S01914",
    "name": "Cava Tigozzi",
    "region": "1",
    "lat": 45.156823,
    "lon": 9.955827,
    "lefrecceId": 830001914
  },
  {
    "id": "S00423",
    "name": "Cavagnolo Brusasco",
    "region": "3",
    "lat": 45.153655,
    "lon": 8.047534
  },
  {
    "id": "S09113",
    "name": "Cavalleggeri Aosta",
    "region": "18",
    "lat": 40.819292,
    "lon": 14.185679,
    "lefrecceId": 830009113
  },
  {
    "id": "S00603",
    "name": "Cavallermaggiore",
    "region": "3",
    "lat": 44.708147,
    "lon": 7.692108,
    "lefrecceId": 830000603
  },
  {
    "id": "S05425",
    "name": "Cavanella d'Adige",
    "region": "12",
    "lat": 45.111263,
    "lon": 12.249312,
    "lefrecceId": 830005425
  },
  {
    "id": "S05422",
    "name": "Cavanella Po",
    "region": "12",
    "lat": 45.052208,
    "lon": 12.134893
  },
  {
    "id": "S01210",
    "name": "Cavaria Oggiona Jerago",
    "region": "1",
    "lat": 45.698145,
    "lon": 8.8035
  },
  {
    "id": "S02147",
    "name": "Cavazzale",
    "region": "12",
    "lat": 45.596079,
    "lon": 11.569823,
    "lefrecceId": 830002147
  },
  {
    "id": "S04724",
    "name": "Cavi",
    "region": "2",
    "lat": 44.29354,
    "lon": 9.37251,
    "lefrecceId": 830004724
  },
  {
    "id": "N00238",
    "name": "Cazzago S. Martino",
    "region": null,
    "lat": null,
    "lon": null
  },
  {
    "id": "S08664",
    "name": "Ceccano",
    "region": "5",
    "lat": 41.573583,
    "lon": 13.336417
  },
  {
    "id": "S08732",
    "name": "Cecchina",
    "region": "5",
    "lat": 41.692029,
    "lon": 12.650992
  },
  {
    "id": "S06026",
    "name": "Cecina",
    "region": "13",
    "lat": 43.31028,
    "lon": 10.514225
  },
  {
    "id": "N00231",
    "name": "Cedegolo",
    "region": null,
    "lat": null,
    "lon": null
  },
  {
    "id": "S12019",
    "name": "Cefalu'",
    "region": "14",
    "lat": 38.03285,
    "lon": 14.019526
  },
  {
    "id": "S02665",
    "name": "Ceggia",
    "region": "12",
    "lat": 45.688394,
    "lon": 12.633987
  },
  {
    "id": "S08528",
    "name": "Celano-Ovindoli",
    "region": "19",
    "lat": 42.076999,
    "lon": 13.543398
  },
  {
    "id": "S04530",
    "name": "Celle",
    "region": "2",
    "lat": 44.34246,
    "lon": 8.542626
  },
  {
    "id": "S11716",
    "name": "Celle Bulgheria Roccagloriosa",
    "region": "18",
    "lat": 40.10287,
    "lon": 15.39473
  },
  {
    "id": "S00745",
    "name": "Cengio",
    "region": "2",
    "lat": 44.390798,
    "lon": 8.191824
  },
  {
    "id": "S00608",
    "name": "Centallo",
    "region": "3",
    "lat": 44.496223,
    "lon": 7.591035
  },
  {
    "id": "S11715",
    "name": "Centola",
    "region": "18",
    "lat": 40.090672,
    "lon": 15.34674
  },
  {
    "id": "S08666",
    "name": "Ceprano-Falvaterra",
    "region": "5",
    "lat": 41.523962,
    "lon": 13.523481
  },
  {
    "id": "S78500",
    "name": "Cerbere",
    "region": null,
    "lat": null,
    "lon": null
  },
  {
    "id": "S00541",
    "name": "Cercenasco",
    "region": "3",
    "lat": 44.864897,
    "lon": 7.495302
  },
  {
    "id": "S08530",
    "name": "Cerchio",
    "region": "19",
    "lat": 42.061082,
    "lon": 13.597972
  },
  {
    "id": "S06956",
    "name": "Cercina",
    "region": "13",
    "lat": 43.900121,
    "lon": 11.265279
  },
  {
    "id": "S12200",
    "name": "Cerda",
    "region": "14",
    "lat": 37.953964,
    "lon": 13.78447
  },
  {
    "id": "S02364",
    "name": "Cerea",
    "region": "12",
    "lat": 45.196556,
    "lon": 11.213921
  },
  {
    "id": "S05417",
    "name": "Ceregnano",
    "region": "12",
    "lat": 45.05062,
    "lon": 11.870958
  },
  {
    "id": "S04517",
    "name": "Ceriale",
    "region": "2",
    "lat": 44.098922,
    "lon": 8.234216
  },
  {
    "id": "N00248",
    "name": "Ceriano Laghetto Solaro",
    "region": null,
    "lat": null,
    "lon": null
  },
  {
    "id": "S11103",
    "name": "Cerignola",
    "region": "16",
    "lat": 41.315664,
    "lon": 15.897298
  },
  {
    "id": "S01934",
    "name": "Cerlano Laghetto",
    "region": null,
    "lat": null,
    "lon": null
  },
  {
    "id": "S01513",
    "name": "Cernusco-Merate",
    "region": "1",
    "lat": 45.695096,
    "lon": 9.396794
  },
  {
    "id": "S07300",
    "name": "Cerreto d'Esi",
    "region": "11",
    "lat": 43.32205,
    "lon": 12.98319
  },
  {
    "id": "S06803",
    "name": "Certaldo",
    "region": "13",
    "lat": 43.547124,
    "lon": 11.037711
  },
  {
    "id": "S01803",
    "name": "Certosa di Pavia",
    "region": "1",
    "lat": 45.256927,
    "lon": 9.154456,
    "lefrecceId": 830001803
  },
  {
    "id": "S11200",
    "name": "Cervaro",
    "region": "16",
    "lat": 41.397604,
    "lon": 15.595704
  },
  {
    "id": "S05814",
    "name": "Cervia-Milano Marittima",
    "region": "8",
    "lat": 44.258444,
    "lon": 12.347096,
    "lefrecceId": 830005814
  },
  {
    "id": "S03207",
    "name": "Cervignano A. G.",
    "region": "10",
    "lat": 45.823948,
    "lon": 13.342866
  },
  {
    "id": "S00546",
    "name": "Cervignasco",
    "region": "3",
    "lat": 44.699669,
    "lon": 7.518644
  },
  {
    "id": "S09015",
    "name": "Cervinara",
    "region": null,
    "lat": null,
    "lon": null
  },
  {
    "id": "S04512",
    "name": "Cervo San Bartolomeo",
    "region": "2",
    "lat": 43.923901,
    "lon": 8.109704
  },
  {
    "id": "S01112",
    "name": "Cesano Boscone",
    "region": null,
    "lat": null,
    "lon": null
  },
  {
    "id": "S08319",
    "name": "Cesano di Roma",
    "region": "5",
    "lat": 42.061833,
    "lon": 12.326669,
    "lefrecceId": 830008319
  },
  {
    "id": "S01086",
    "name": "Cesano Maderno",
    "region": null,
    "lat": null,
    "lon": null
  },
  {
    "id": "S01075",
    "name": "Cesate",
    "region": null,
    "lat": null,
    "lon": null
  },
  {
    "id": "S09473",
    "name": "Cese",
    "region": "18",
    "lat": 41.210883,
    "lon": 14.787329
  },
  {
    "id": "S05066",
    "name": "Cesena",
    "region": "8",
    "lat": 44.145449,
    "lon": 12.24964
  },
  {
    "id": "S05815",
    "name": "Cesenatico",
    "region": "8",
    "lat": 44.20065,
    "lon": 12.391186
  },
  {
    "id": "N00228",
    "name": "Ceto - Cerveno",
    "region": null,
    "lat": null,
    "lon": null
  },
  {
    "id": "S11735",
    "name": "Cetraro",
    "region": "17",
    "lat": 39.512553,
    "lon": 15.939263
  },
  {
    "id": "S00742",
    "name": "Ceva",
    "region": "3",
    "lat": 44.389861,
    "lon": 8.031958
  },
  {
    "id": "S00141",
    "name": "Chambave",
    "region": "4",
    "lat": 45.744163,
    "lon": 7.557301,
    "lefrecceId": 830000141
  },
  {
    "id": "S00142",
    "name": "Chatillon Saint Vincent",
    "region": "4",
    "lat": 45.7434,
    "lon": 7.619309
  },
  {
    "id": "S00733",
    "name": "Cherasco",
    "region": "3",
    "lat": 44.65261,
    "lon": 7.867211
  },
  {
    "id": "S09510",
    "name": "Chianche Ceppaloni",
    "region": "18",
    "lat": 41.050122,
    "lon": 14.777618
  },
  {
    "id": "S07201",
    "name": "Chiaravalle",
    "region": "11",
    "lat": 43.595503,
    "lon": 13.327655,
    "lefrecceId": 830007201
  },
  {
    "id": "S01713",
    "name": "Chiari",
    "region": "1",
    "lat": 45.54011,
    "lon": 9.926474
  },
  {
    "id": "S08007",
    "name": "Chiarone",
    "region": "13",
    "lat": 42.387528,
    "lon": 11.446123
  },
  {
    "id": "S01301",
    "name": "Chiasso",
    "region": "1",
    "lat": 45.830736,
    "lon": 9.03421
  },
  {
    "id": "S04722",
    "name": "Chiavari",
    "region": "2",
    "lat": 44.315156,
    "lon": 9.322464,
    "lefrecceId": 830004722
  },
  {
    "id": "S01400",
    "name": "Chiavenna",
    "region": "1",
    "lat": 46.321258,
    "lon": 9.407129,
    "lefrecceId": 830001400
  },
  {
    "id": "S00500",
    "name": "Chieri",
    "region": "3",
    "lat": 45.007008,
    "lon": 7.827077
  },
  {
    "id": "S07712",
    "name": "Chieti",
    "region": "19",
    "lat": 42.356905,
    "lon": 14.13815
  },
  {
    "id": "S11021",
    "name": "Chieuti Serracapriola",
    "region": "16",
    "lat": 41.921962,
    "lon": 15.156645
  },
  {
    "id": "S01868",
    "name": "Chignolo Po",
    "region": "1",
    "lat": 45.160942,
    "lon": 9.494196
  },
  {
    "id": "S05428",
    "name": "Chioggia",
    "region": "12",
    "lat": 45.210243,
    "lon": 12.275235
  },
  {
    "id": "S00206",
    "name": "Chiomonte",
    "region": "3",
    "lat": 45.119876,
    "lon": 6.988716
  },
  {
    "id": "S12899",
    "name": "Chirialza",
    "region": "20",
    "lat": 40.830877,
    "lon": 9.36732
  },
  {
    "id": "S01536",
    "name": "Chiuduno",
    "region": "1",
    "lat": 45.650449,
    "lon": 9.846924
  },
  {
    "id": "S01435",
    "name": "Chiuro",
    "region": "1",
    "lat": 46.164658,
    "lon": 9.992317
  },
  {
    "id": "S02017",
    "name": "Chiusa",
    "region": "9",
    "lat": 46.642611,
    "lon": 11.572678
  },
  {
    "id": "S00429",
    "name": "Chiusano Cossombrone",
    "region": "3",
    "lat": 44.985034,
    "lon": 8.128822
  },
  {
    "id": "S06925",
    "name": "Chiusi C. T.",
    "region": "13",
    "lat": 43.002466,
    "lon": 11.957893
  },
  {
    "id": "S00232",
    "name": "Chivasso",
    "region": "3",
    "lat": 45.193637,
    "lon": 7.889666
  },
  {
    "id": "S08650",
    "name": "Ciampino",
    "region": "5",
    "lat": 41.804442,
    "lon": 12.599546
  },
  {
    "id": "S02209",
    "name": "Ciardes",
    "region": "9",
    "lat": 46.635274,
    "lon": 10.940542
  },
  {
    "id": "S12126",
    "name": "Cinisi Terrasini",
    "region": "14",
    "lat": 38.155314,
    "lon": 13.096673
  },
  {
    "id": "S00090",
    "name": "Cire'",
    "region": null,
    "lat": null,
    "lon": null
  },
  {
    "id": "S11730",
    "name": "Cirella Majera'",
    "region": "17",
    "lat": 39.708556,
    "lon": 15.812289
  },
  {
    "id": "S11820",
    "name": "Ciro'",
    "region": "17",
    "lat": 39.368701,
    "lon": 17.116997
  },
  {
    "id": "S01525",
    "name": "Cisano Caprino Bergamasco",
    "region": "1",
    "lat": 45.739606,
    "lon": 9.474261
  },
  {
    "id": "N00015",
    "name": "Cislago",
    "region": null,
    "lat": null,
    "lon": null
  },
  {
    "id": "S02500",
    "name": "Cismon del Grappa",
    "region": "12",
    "lat": 45.919664,
    "lon": 11.729272
  },
  {
    "id": "S08603",
    "name": "Cisterna di Latina",
    "region": "5",
    "lat": 41.586511,
    "lon": 12.827538
  },
  {
    "id": "S11131",
    "name": "Cisternino",
    "region": "16",
    "lat": 40.816652,
    "lon": 17.456899
  },
  {
    "id": "S06154",
    "name": "Citerna Taro",
    "region": "8",
    "lat": 44.63548,
    "lon": 10.032939
  },
  {
    "id": "S08200",
    "name": "Citta' della Pieve",
    "region": "6",
    "lat": 42.936221,
    "lon": 11.971127
  },
  {
    "id": "S02535",
    "name": "Cittadella",
    "region": "12",
    "lat": 45.643868,
    "lon": 11.789857
  },
  {
    "id": "S07406",
    "name": "Cittaducale",
    "region": "5",
    "lat": 42.387764,
    "lon": 12.94269
  },
  {
    "id": "N00032",
    "name": "Cittiglio",
    "region": null,
    "lat": null,
    "lon": null
  },
  {
    "id": "S01462",
    "name": "Civate",
    "region": "1",
    "lat": 45.831295,
    "lon": 9.352877
  },
  {
    "id": "S03056",
    "name": "Cividale",
    "region": null,
    "lat": null,
    "lon": null
  },
  {
    "id": "N00225",
    "name": "Cividate - Malegno",
    "region": null,
    "lat": null,
    "lon": null
  },
  {
    "id": "S08211",
    "name": "Civita Castellana",
    "region": "5",
    "lat": 42.346593,
    "lon": 12.453821
  },
  {
    "id": "S08853",
    "name": "Civita d'Antino-Morino",
    "region": "19",
    "lat": 41.870632,
    "lon": 13.458868
  },
  {
    "id": "S07506",
    "name": "Civitanova Marche",
    "region": "11",
    "lat": 43.3091,
    "lon": 13.7257
  },
  {
    "id": "S08010",
    "name": "Civitavecchia",
    "region": "5",
    "lat": 42.088287,
    "lon": 11.79815,
    "lefrecceId": 830008997
  },
  {
    "id": "S08012",
    "name": "Civitavecchia M. Ma",
    "region": "5",
    "lat": 42.099843,
    "lon": 11.78438
  },
  {
    "id": "S08024",
    "name": "Civitavecchia Viale della Vittoria",
    "region": "5",
    "lat": 42.086518,
    "lon": 11.800599
  },
  {
    "id": "S06066",
    "name": "Civitella - Badia al Pino",
    "region": null,
    "lat": null,
    "lon": null
  },
  {
    "id": "S06822",
    "name": "Civitella Paganico",
    "region": "13",
    "lat": 42.94028,
    "lon": 11.283536
  },
  {
    "id": "S08852",
    "name": "Civitella Roveto",
    "region": "19",
    "lat": 41.916419,
    "lon": 13.424882
  },
  {
    "id": "S12970",
    "name": "Cixerri",
    "region": "20",
    "lat": 39.26982,
    "lon": 8.578934
  },
  {
    "id": "S05812",
    "name": "Classe",
    "region": "8",
    "lat": 44.382033,
    "lon": 12.234995
  },
  {
    "id": "S01540",
    "name": "Coccaglio",
    "region": "1",
    "lat": 45.560971,
    "lon": 9.977648
  },
  {
    "id": "S00425",
    "name": "Cocconato",
    "region": "3",
    "lat": 45.082926,
    "lon": 8.070145
  },
  {
    "id": "N00030",
    "name": "Cocquio - Trevisago",
    "region": null,
    "lat": null,
    "lon": null
  },
  {
    "id": "S08534",
    "name": "Cocullo",
    "region": "19",
    "lat": 42.040723,
    "lon": 13.776636
  },
  {
    "id": "S05799",
    "name": "Codigoro",
    "region": null,
    "lat": null,
    "lon": null
  },
  {
    "id": "S01828",
    "name": "Codogno",
    "region": "1",
    "lat": 45.154897,
    "lon": 9.701376
  },
  {
    "id": "S09703",
    "name": "Codola",
    "region": "18",
    "lat": 40.767687,
    "lon": 14.665622
  },
  {
    "id": "S02831",
    "name": "Codroipo",
    "region": "10",
    "lat": 45.9657,
    "lon": 12.976543
  },
  {
    "id": "N00224",
    "name": "Cogno - Esine",
    "region": null,
    "lat": null,
    "lon": null
  },
  {
    "id": "S04532",
    "name": "Cogoleto",
    "region": "2",
    "lat": 44.389762,
    "lon": 8.643906
  },
  {
    "id": "S02206",
    "name": "Coldrano-Martello",
    "region": "9",
    "lat": 46.618902,
    "lon": 10.821204
  },
  {
    "id": "S08820",
    "name": "Colfelice",
    "region": null,
    "lat": null,
    "lon": null
  },
  {
    "id": "S01420",
    "name": "Colico",
    "region": "1",
    "lat": 46.138019,
    "lon": 9.375222
  },
  {
    "id": "S08548",
    "name": "Collarmele",
    "region": null,
    "lat": null,
    "lon": null
  },
  {
    "id": "S02005",
    "name": "Colle Isarco",
    "region": "9",
    "lat": 46.937951,
    "lon": 11.441336
  },
  {
    "id": "S08651",
    "name": "Colle Mattia",
    "region": "5",
    "lat": 41.832756,
    "lon": 12.728329
  },
  {
    "id": "S06840",
    "name": "Colle Val d'Elsa",
    "region": "13",
    "lat": 43.421908,
    "lon": 11.127681
  },
  {
    "id": "S06151",
    "name": "Collecchio",
    "region": "8",
    "lat": 44.755339,
    "lon": 10.21228
  },
  {
    "id": "S07994",
    "name": "Colledimezzo",
    "region": null,
    "lat": null,
    "lon": null
  },
  {
    "id": "S08657",
    "name": "Colleferro-Segni-Paliano",
    "region": "5",
    "lat": 41.740062,
    "lon": 13.00299
  },
  {
    "id": "S00217",
    "name": "Collegno",
    "region": "3",
    "lat": 45.078854,
    "lon": 7.574131
  },
  {
    "id": "S06018",
    "name": "Collesalvetti",
    "region": "13",
    "lat": 43.586586,
    "lon": 10.470534
  },
  {
    "id": "S08221",
    "name": "Collevecchio",
    "region": "5",
    "lat": 42.298089,
    "lon": 12.520546
  },
  {
    "id": "S08520",
    "name": "Colli di Monte Bove",
    "region": "19",
    "lat": 42.097103,
    "lon": 13.15057
  },
  {
    "id": "S01111",
    "name": "Colmegna",
    "region": null,
    "lat": null,
    "lon": null
  },
  {
    "id": "S01539",
    "name": "Cologne",
    "region": "1",
    "lat": 45.576627,
    "lon": 9.935316
  },
  {
    "id": "S08653",
    "name": "Colonna Galleria",
    "region": null,
    "lat": null,
    "lon": null
  },
  {
    "id": "S01852",
    "name": "Colorno",
    "region": "8",
    "lat": 44.927943,
    "lon": 10.382935
  },
  {
    "id": "S00050",
    "name": "Comignago",
    "region": "3",
    "lat": 45.714296,
    "lon": 8.566362
  },
  {
    "id": "S12411",
    "name": "Comiso",
    "region": "14",
    "lat": 36.947184,
    "lon": 14.60037
  },
  {
    "id": "N00043",
    "name": "Como Nord Borghi",
    "": "Como",
    "region": null,
    "lat": null,
    "lon": null
  },
  {
    "id": "N00042",
    "name": "Como Nord Camerlata",
    "": "Como",
    "region": null,
    "lat": null,
    "lon": null
  },